[
  {
    "StopID": 3,
    "DIVA": null,
    "StopText": "Messe Prater",
    "Municipality": "Wien",
    "MunicipalityID": 90001,
    "Longitude": 16.4066719,
    "Latitude": 48.2179891
  },
  {
    "StopID": 5,
    "DIVA": 60200195,
    "StopText": "Börse",
    "Municipality": "Wien",
    "MunicipalityID": 90001,
    "Longitude": 16.3646213,
    "Latitude": 48.2159872
  },
  {
    "StopID": 7,
    "DIVA": 60201848,
    "StopText": "Praterstern, Lassallestraße",
    "Municipality": "Wien",
    "MunicipalityID": 90001,
    "Longitude": 16.3947175,
    "Latitude": 48.2200786
  },
  {
    "StopID": 8,
    "DIVA": 60201349,
    "StopText": "Hauptbahnhof S U",
    "Municipality": "Wien",
    "MunicipalityID": 90001,
    "Longitude": 16.3755536,
    "Latitude": 48.1860744
  },
  {
    "StopID": 9,
    "DIVA": 60200619,
    "StopText": "Julius-Raab-Platz",
    "Municipality": "Wien",
    "MunicipalityID": 90001,
    "Longitude": 16.3825366,
    "Latitude": 48.2103072
  },
  {
    "StopID": 10,
    "DIVA": 60200245,
    "StopText": "Stubentor U, Dr.-Karl-Lueger-Platz",
    "Municipality": "Wien",
    "MunicipalityID": 90001,
    "Longitude": 16.3799838,
    "Latitude": 48.2067758
  },
  {
    "StopID": 11,
    "DIVA": 60201460,
    "StopText": "Weihburggasse",
    "Municipality": "Wien",
    "MunicipalityID": 90001,
    "Longitude": 16.3777463,
    "Latitude": 48.2045888
  },
  {
    "StopID": 12,
    "DIVA": 60201193,
    "StopText": "Schwarzenbergplatz",
    "Municipality": "Wien",
    "MunicipalityID": 90001,
    "Longitude": 16.3745994,
    "Latitude": 48.2017869
  },
  {
    "StopID": 13,
    "DIVA": 60200975,
    "StopText": "Oper, Karlsplatz U",
    "Municipality": "Wien",
    "MunicipalityID": 90001,
    "Longitude": 16.3698872,
    "Latitude": 48.2023388
  },
  {
    "StopID": 14,
    "DIVA": 60200190,
    "StopText": "Burgring",
    "Municipality": "Wien",
    "MunicipalityID": 90001,
    "Longitude": 16.3639775,
    "Latitude": 48.2038658
  },
  {
    "StopID": 15,
    "DIVA": 60200246,
    "StopText": "Ring, Volkstheater U",
    "Municipality": "Wien",
    "MunicipalityID": 90001,
    "Longitude": 16.3598497,
    "Latitude": 48.2069311
  },
  {
    "StopID": 16,
    "DIVA": 60200994,
    "StopText": "Parlament",
    "Municipality": "Wien",
    "MunicipalityID": 90001,
    "Longitude": 16.3601294,
    "Latitude": 48.2084247
  },
  {
    "StopID": 17,
    "DIVA": 60200192,
    "StopText": "Rathausplatz, Burgtheater",
    "Municipality": "Wien",
    "MunicipalityID": 90001,
    "Longitude": 16.3607361,
    "Latitude": 48.2104744
  },
  {
    "StopID": 18,
    "DIVA": 60201184,
    "StopText": "Schottentor U",
    "Municipality": "Wien",
    "MunicipalityID": 90001,
    "Longitude": 16.3623955,
    "Latitude": 48.213848
  },
  {
    "StopID": 19,
    "DIVA": 60200195,
    "StopText": "Börse",
    "Municipality": "Wien",
    "MunicipalityID": 90001,
    "Longitude": 16.3665547,
    "Latitude": 48.2157594
  },
  {
    "StopID": 20,
    "DIVA": 60201182,
    "StopText": "Schottenring U",
    "Municipality": "Wien",
    "MunicipalityID": 90001,
    "Longitude": 16.3712608,
    "Latitude": 48.21657
  },
  {
    "StopID": 21,
    "DIVA": 60201145,
    "StopText": "Salztorbrücke",
    "Municipality": "Wien",
    "MunicipalityID": 90001,
    "Longitude": 16.3738566,
    "Latitude": 48.2140466
  },
  {
    "StopID": 22,
    "DIVA": 60201198,
    "StopText": "Schwedenplatz U",
    "Municipality": "Wien",
    "MunicipalityID": 90001,
    "Longitude": 16.3780233,
    "Latitude": 48.2115755
  },
  {
    "StopID": 23,
    "DIVA": 60200619,
    "StopText": "Julius-Raab-Platz",
    "Municipality": "Wien",
    "MunicipalityID": 90001,
    "Longitude": 16.3834366,
    "Latitude": 48.2112036
  },
  {
    "StopID": 26,
    "DIVA": null,
    "StopText": "Praterstern S U",
    "Municipality": "Wien",
    "MunicipalityID": 90001,
    "Longitude": null,
    "Latitude": null
  },
  {
    "StopID": 27,
    "DIVA": 60201421,
    "StopText": "Venediger Au",
    "Municipality": "Wien",
    "MunicipalityID": 90001,
    "Longitude": 16.39673,
    "Latitude": 48.2178736
  },
  {
    "StopID": 28,
    "DIVA": 60201009,
    "StopText": "Perspektivstraße",
    "Municipality": "Wien",
    "MunicipalityID": 90001,
    "Longitude": 16.4008075,
    "Latitude": 48.21785
  },
  {
    "StopID": 29,
    "DIVA": null,
    "StopText": "Messe Prater",
    "Municipality": "Wien",
    "MunicipalityID": 90001,
    "Longitude": 16.4066669,
    "Latitude": 48.2178338
  },
  {
    "StopID": 30,
    "DIVA": 60200274,
    "StopText": "Elderschplatz",
    "Municipality": "Wien",
    "MunicipalityID": 90001,
    "Longitude": 16.4120199,
    "Latitude": 48.2177166
  },
  {
    "StopID": 31,
    "DIVA": 60200196,
    "StopText": "Bösendorferstraße, Karlsplatz U",
    "Municipality": "Wien",
    "MunicipalityID": 90001,
    "Longitude": 16.3708161,
    "Latitude": 48.2012519
  },
  {
    "StopID": 33,
    "DIVA": 60200246,
    "StopText": "Ring, Volkstheater U",
    "Municipality": "Wien",
    "MunicipalityID": 90001,
    "Longitude": 16.36061,
    "Latitude": 48.206368
  },
  {
    "StopID": 36,
    "DIVA": 60201468,
    "StopText": "Westbahnhof S U",
    "Municipality": "Wien",
    "MunicipalityID": 90001,
    "Longitude": 16.339108,
    "Latitude": 48.1963919
  },
  {
    "StopID": 37,
    "DIVA": 60201575,
    "StopText": "Schemmerlstraße",
    "Municipality": "Wien",
    "MunicipalityID": 90001,
    "Longitude": 16.423585,
    "Latitude": 48.1570119
  },
  {
    "StopID": 39,
    "DIVA": 60201349,
    "StopText": "Hauptbahnhof S U",
    "Municipality": "Wien",
    "MunicipalityID": 90001,
    "Longitude": 16.374873,
    "Latitude": 48.1858263
  },
  {
    "StopID": 40,
    "DIVA": 60200989,
    "StopText": "Karl-Popper-Straße",
    "Municipality": "Wien",
    "MunicipalityID": 90001,
    "Longitude": 16.378988,
    "Latitude": 48.1873786
  },
  {
    "StopID": 41,
    "DIVA": 60200619,
    "StopText": "Julius-Raab-Platz",
    "Municipality": "Wien",
    "MunicipalityID": 90001,
    "Longitude": 16.3830502,
    "Latitude": 48.2112491
  },
  {
    "StopID": 42,
    "DIVA": 60201198,
    "StopText": "Schwedenplatz U",
    "Municipality": "Wien",
    "MunicipalityID": 90001,
    "Longitude": 16.3775813,
    "Latitude": 48.2117466
  },
  {
    "StopID": 43,
    "DIVA": 60201145,
    "StopText": "Salztorbrücke",
    "Municipality": "Wien",
    "MunicipalityID": 90001,
    "Longitude": 16.3740977,
    "Latitude": 48.2138344
  },
  {
    "StopID": 44,
    "DIVA": 60201182,
    "StopText": "Schottenring U",
    "Municipality": "Wien",
    "MunicipalityID": 90001,
    "Longitude": 16.3710125,
    "Latitude": 48.2168347
  },
  {
    "StopID": 45,
    "DIVA": 60200195,
    "StopText": "Börse",
    "Municipality": "Wien",
    "MunicipalityID": 90001,
    "Longitude": 16.3655711,
    "Latitude": 48.2154291
  },
  {
    "StopID": 46,
    "DIVA": 60201184,
    "StopText": "Schottentor U",
    "Municipality": "Wien",
    "MunicipalityID": 90001,
    "Longitude": 16.3616483,
    "Latitude": 48.2136594
  },
  {
    "StopID": 47,
    "DIVA": 60200192,
    "StopText": "Rathausplatz, Burgtheater",
    "Municipality": "Wien",
    "MunicipalityID": 90001,
    "Longitude": 16.3606155,
    "Latitude": 48.2105886
  },
  {
    "StopID": 48,
    "DIVA": 60200994,
    "StopText": "Parlament",
    "Municipality": "Wien",
    "MunicipalityID": 90001,
    "Longitude": 16.3600858,
    "Latitude": 48.2087975
  },
  {
    "StopID": 49,
    "DIVA": 60200246,
    "StopText": "Ring, Volkstheater U",
    "Municipality": "Wien",
    "MunicipalityID": 90001,
    "Longitude": 16.3600825,
    "Latitude": 48.2065986
  },
  {
    "StopID": 50,
    "DIVA": 60200190,
    "StopText": "Burgring",
    "Municipality": "Wien",
    "MunicipalityID": 90001,
    "Longitude": 16.3635008,
    "Latitude": 48.2040288
  },
  {
    "StopID": 51,
    "DIVA": 60200975,
    "StopText": "Oper, Karlsplatz U",
    "Municipality": "Wien",
    "MunicipalityID": 90001,
    "Longitude": 16.3691961,
    "Latitude": 48.2023844
  },
  {
    "StopID": 52,
    "DIVA": 60201193,
    "StopText": "Schwarzenbergplatz",
    "Municipality": "Wien",
    "MunicipalityID": 90001,
    "Longitude": 16.375125,
    "Latitude": 48.201848
  },
  {
    "StopID": 53,
    "DIVA": 60201460,
    "StopText": "Weihburggasse",
    "Municipality": "Wien",
    "MunicipalityID": 90001,
    "Longitude": 16.3776838,
    "Latitude": 48.2043477
  },
  {
    "StopID": 54,
    "DIVA": 60200245,
    "StopText": "Stubentor U, Dr.-Karl-Lueger-Platz",
    "Municipality": "Wien",
    "MunicipalityID": 90001,
    "Longitude": 16.3804041,
    "Latitude": 48.2070072
  },
  {
    "StopID": 55,
    "DIVA": 60200619,
    "StopText": "Julius-Raab-Platz",
    "Municipality": "Wien",
    "MunicipalityID": 90001,
    "Longitude": 16.3827802,
    "Latitude": 48.2106419
  },
  {
    "StopID": 56,
    "DIVA": 60200544,
    "StopText": "Hoher Markt",
    "Municipality": "Wien",
    "MunicipalityID": 90001,
    "Longitude": null,
    "Latitude": null
  },
  {
    "StopID": 57,
    "DIVA": 60200905,
    "StopText": "Hauptbahnhof Ost",
    "Municipality": "Wien",
    "MunicipalityID": 90001,
    "Longitude": 16.3807552,
    "Latitude": 48.1849997
  },
  {
    "StopID": 58,
    "DIVA": 60200905,
    "StopText": "Hauptbahnhof Ost",
    "Municipality": "Wien",
    "MunicipalityID": 90001,
    "Longitude": 16.3805427,
    "Latitude": 48.1844944
  },
  {
    "StopID": 59,
    "DIVA": 60201205,
    "StopText": "Schüttaustraße",
    "Municipality": "Wien",
    "MunicipalityID": 90001,
    "Longitude": 16.4173305,
    "Latitude": 48.2308858
  },
  {
    "StopID": 60,
    "DIVA": 60201205,
    "StopText": "Schüttaustraße",
    "Municipality": "Wien",
    "MunicipalityID": 90001,
    "Longitude": 16.4171658,
    "Latitude": 48.2307655
  },
  {
    "StopID": 61,
    "DIVA": null,
    "StopText": "Gänsehäufel",
    "Municipality": "Wien",
    "MunicipalityID": 90001,
    "Longitude": null,
    "Latitude": null
  },
  {
    "StopID": 62,
    "DIVA": 60201204,
    "StopText": "Schüttauplatz",
    "Municipality": "Wien",
    "MunicipalityID": 90001,
    "Longitude": 16.4228855,
    "Latitude": 48.2266855
  },
  {
    "StopID": 63,
    "DIVA": 60201209,
    "StopText": "Schödlbergergasse",
    "Municipality": "Wien",
    "MunicipalityID": 90001,
    "Longitude": 16.420455,
    "Latitude": 48.2285536
  },
  {
    "StopID": 64,
    "DIVA": 60200411,
    "StopText": "Goethehof",
    "Municipality": "Wien",
    "MunicipalityID": 90001,
    "Longitude": 16.4191852,
    "Latitude": 48.2294988
  },
  {
    "StopID": 65,
    "DIVA": 60200641,
    "StopText": "Kaisermühlen VIC U",
    "Municipality": "Wien",
    "MunicipalityID": 90001,
    "Longitude": 16.4159238,
    "Latitude": 48.2328188
  },
  {
    "StopID": 66,
    "DIVA": null,
    "StopText": "Kaisermühlen VIC U",
    "Municipality": "Wien",
    "MunicipalityID": 90001,
    "Longitude": null,
    "Latitude": null
  },
  {
    "StopID": 67,
    "DIVA": 60201634,
    "StopText": "Seidelbastgasse",
    "Municipality": "Wien",
    "MunicipalityID": 90001,
    "Longitude": 16.471395,
    "Latitude": 48.2141541
  },
  {
    "StopID": 68,
    "DIVA": 60201633,
    "StopText": "Stavangergasse",
    "Municipality": "Wien",
    "MunicipalityID": 90001,
    "Longitude": 16.4760108,
    "Latitude": 48.2130544
  },
  {
    "StopID": 69,
    "DIVA": 60201507,
    "StopText": "Haßlwanderweg",
    "Municipality": "Wien",
    "MunicipalityID": 90001,
    "Longitude": 16.4789227,
    "Latitude": 48.2126425
  },
  {
    "StopID": 70,
    "DIVA": null,
    "StopText": "Neue Donau Mitte",
    "Municipality": "Wien",
    "MunicipalityID": 90001,
    "Longitude": null,
    "Latitude": null
  },
  {
    "StopID": 71,
    "DIVA": 60201016,
    "StopText": "Alfred-Adler-Straße",
    "Municipality": "Wien",
    "MunicipalityID": 90001,
    "Longitude": 16.3816411,
    "Latitude": 48.181868
  },
  {
    "StopID": 72,
    "DIVA": 60200641,
    "StopText": "Kaisermühlen, VIC U",
    "Municipality": "Wien",
    "MunicipalityID": 90001,
    "Longitude": 16.4155586,
    "Latitude": 48.2328447
  },
  {
    "StopID": 73,
    "DIVA": 60200411,
    "StopText": "Goethehof",
    "Municipality": "Wien",
    "MunicipalityID": 90001,
    "Longitude": 16.418988,
    "Latitude": 48.2294169
  },
  {
    "StopID": 74,
    "DIVA": 60201209,
    "StopText": "Schödlbergergasse",
    "Municipality": "Wien",
    "MunicipalityID": 90001,
    "Longitude": 16.4203513,
    "Latitude": 48.2284066
  },
  {
    "StopID": 75,
    "DIVA": null,
    "StopText": "Schüttauplatz",
    "Municipality": "Wien",
    "MunicipalityID": 90001,
    "Longitude": null,
    "Latitude": null
  },
  {
    "StopID": 76,
    "DIVA": 60200883,
    "StopText": "Mauthausgasse",
    "Municipality": "Wien",
    "MunicipalityID": 90001,
    "Longitude": 16.3457333,
    "Latitude": 48.1879219
  },
  {
    "StopID": 77,
    "DIVA": null,
    "StopText": "Haus des Meeres",
    "Municipality": "Wien",
    "MunicipalityID": 90001,
    "Longitude": 16.3547983,
    "Latitude": 48.1979536
  },
  {
    "StopID": 78,
    "DIVA": null,
    "StopText": "Siebenhirten",
    "Municipality": "Wien",
    "MunicipalityID": 90001,
    "Longitude": null,
    "Latitude": null
  },
  {
    "StopID": 79,
    "DIVA": 60201182,
    "StopText": "Schottenring U",
    "Municipality": "Wien",
    "MunicipalityID": 90001,
    "Longitude": 16.3710125,
    "Latitude": 48.2168347
  },
  {
    "StopID": 81,
    "DIVA": 60201193,
    "StopText": "Schwarzenbergplatz",
    "Municipality": "Wien",
    "MunicipalityID": 90001,
    "Longitude": 16.3745711,
    "Latitude": 48.2012683
  },
  {
    "StopID": 88,
    "DIVA": 60200116,
    "StopText": "Beethovengang",
    "Municipality": "Wien",
    "MunicipalityID": 90001,
    "Longitude": 16.3625152,
    "Latitude": 48.2598286
  },
  {
    "StopID": 89,
    "DIVA": 60200457,
    "StopText": "Habsburgergasse",
    "Municipality": "Wien",
    "MunicipalityID": 90001,
    "Longitude": null,
    "Latitude": null
  },
  {
    "StopID": 90,
    "DIVA": 60200116,
    "StopText": "Beethovengang",
    "Municipality": "Wien",
    "MunicipalityID": 90001,
    "Longitude": 16.362968,
    "Latitude": 48.2595483
  },
  {
    "StopID": 91,
    "DIVA": 60200948,
    "StopText": "Nußdorf S",
    "Municipality": "Wien",
    "MunicipalityID": 90001,
    "Longitude": 16.3670291,
    "Latitude": 48.260145
  },
  {
    "StopID": 92,
    "DIVA": 60201231,
    "StopText": "Sickenberggasse",
    "Municipality": "Wien",
    "MunicipalityID": 90001,
    "Longitude": 16.3670822,
    "Latitude": 48.2581691
  },
  {
    "StopID": 93,
    "DIVA": 60200428,
    "StopText": "Grinzinger Straße",
    "Municipality": "Wien",
    "MunicipalityID": 90001,
    "Longitude": 16.3651291,
    "Latitude": 48.25428
  },
  {
    "StopID": 94,
    "DIVA": 60200468,
    "StopText": "Halteraugasse",
    "Municipality": "Wien",
    "MunicipalityID": 90001,
    "Longitude": 16.3639566,
    "Latitude": 48.2520738
  },
  {
    "StopID": 95,
    "DIVA": 60200301,
    "StopText": "Heiligenstadt, 12.-Februar-Platz",
    "Municipality": "Wien",
    "MunicipalityID": 90001,
    "Longitude": 16.3627813,
    "Latitude": 48.2490505
  },
  {
    "StopID": 96,
    "DIVA": 60200439,
    "StopText": "Gunoldstraße",
    "Municipality": "Wien",
    "MunicipalityID": 90001,
    "Longitude": 16.3617213,
    "Latitude": 48.244875
  },
  {
    "StopID": 97,
    "DIVA": 60201068,
    "StopText": "Rampengasse",
    "Municipality": "Wien",
    "MunicipalityID": 90001,
    "Longitude": 16.3603136,
    "Latitude": 48.2406433
  },
  {
    "StopID": 98,
    "DIVA": 60201062,
    "StopText": "Spittelau S U",
    "Municipality": "Wien",
    "MunicipalityID": 90001,
    "Longitude": 16.3567358,
    "Latitude": 48.2358394
  },
  {
    "StopID": 99,
    "DIVA": 60200786,
    "StopText": "Liechtenwerder Platz",
    "Municipality": "Wien",
    "MunicipalityID": 90001,
    "Longitude": 16.3566261,
    "Latitude": 48.2324008
  },
  {
    "StopID": 100,
    "DIVA": 60200099,
    "StopText": "Augasse",
    "Municipality": "Wien",
    "MunicipalityID": 90001,
    "Longitude": 16.3574083,
    "Latitude": 48.229755
  },
  {
    "StopID": 101,
    "DIVA": 60200345,
    "StopText": "Franz-Josefs-Bahnhof S",
    "Municipality": "Wien",
    "MunicipalityID": 90001,
    "Longitude": 16.3613291,
    "Latitude": 48.2257472
  },
  {
    "StopID": 102,
    "DIVA": 60200112,
    "StopText": "Bauernfeldplatz",
    "Municipality": "Wien",
    "MunicipalityID": 90001,
    "Longitude": 16.3607169,
    "Latitude": 48.2210041
  },
  {
    "StopID": 103,
    "DIVA": 60201169,
    "StopText": "Schlickgasse",
    "Municipality": "Wien",
    "MunicipalityID": 90001,
    "Longitude": 16.3644291,
    "Latitude": 48.2184863
  },
  {
    "StopID": 104,
    "DIVA": 60200099,
    "StopText": "Augasse  (Schleife)",
    "Municipality": "Wien",
    "MunicipalityID": 90001,
    "Longitude": 16.3570863,
    "Latitude": 48.2298291
  },
  {
    "StopID": 105,
    "DIVA": 60201193,
    "StopText": "Schwarzenbergplatz",
    "Municipality": "Wien",
    "MunicipalityID": 90001,
    "Longitude": 16.374768,
    "Latitude": 48.2005438
  },
  {
    "StopID": 106,
    "DIVA": 60200446,
    "StopText": "Gußhausstraße",
    "Municipality": "Wien",
    "MunicipalityID": 90001,
    "Longitude": 16.375543,
    "Latitude": 48.1970205
  },
  {
    "StopID": 107,
    "DIVA": 60201025,
    "StopText": "Plößlgasse",
    "Municipality": "Wien",
    "MunicipalityID": 90001,
    "Longitude": 16.377028,
    "Latitude": 48.1946313
  },
  {
    "StopID": 108,
    "DIVA": 60201173,
    "StopText": "Schloss Belvedere",
    "Municipality": "Wien",
    "MunicipalityID": 90001,
    "Longitude": 16.3790825,
    "Latitude": 48.1920241
  },
  {
    "StopID": 109,
    "DIVA": 60201346,
    "StopText": "Quartier Belvedere S",
    "Municipality": "Wien",
    "MunicipalityID": 90001,
    "Longitude": 16.3814569,
    "Latitude": 48.1875361
  },
  {
    "StopID": 111,
    "DIVA": 60201346,
    "StopText": "Quartier Belvedere S",
    "Municipality": "Wien",
    "MunicipalityID": 90001,
    "Longitude": 16.3814377,
    "Latitude": 48.1876925
  },
  {
    "StopID": 112,
    "DIVA": 60201173,
    "StopText": "Schloss Belvedere",
    "Municipality": "Wien",
    "MunicipalityID": 90001,
    "Longitude": 16.379275,
    "Latitude": 48.1917841
  },
  {
    "StopID": 113,
    "DIVA": 60201025,
    "StopText": "Plößlgasse",
    "Municipality": "Wien",
    "MunicipalityID": 90001,
    "Longitude": 16.3772294,
    "Latitude": 48.1944327
  },
  {
    "StopID": 114,
    "DIVA": 60200446,
    "StopText": "Gußhausstraße",
    "Municipality": "Wien",
    "MunicipalityID": 90001,
    "Longitude": 16.3751066,
    "Latitude": 48.1982972
  },
  {
    "StopID": 115,
    "DIVA": 60200371,
    "StopText": "Seegasse",
    "Municipality": "Wien",
    "MunicipalityID": 90001,
    "Longitude": 16.3614127,
    "Latitude": 48.2229711
  },
  {
    "StopID": 116,
    "DIVA": 60201169,
    "StopText": "Schlickgasse",
    "Municipality": "Wien",
    "MunicipalityID": 90001,
    "Longitude": 16.364278,
    "Latitude": 48.2187672
  },
  {
    "StopID": 117,
    "DIVA": 60200112,
    "StopText": "Bauernfeldplatz",
    "Municipality": "Wien",
    "MunicipalityID": 90001,
    "Longitude": 16.3608536,
    "Latitude": 48.2206908
  },
  {
    "StopID": 118,
    "DIVA": 60200345,
    "StopText": "Franz-Josefs-Bahnhof S",
    "Municipality": "Wien",
    "MunicipalityID": 90001,
    "Longitude": 16.360793,
    "Latitude": 48.2257783
  },
  {
    "StopID": 119,
    "DIVA": 60200099,
    "StopText": "Augasse",
    "Municipality": "Wien",
    "MunicipalityID": 90001,
    "Longitude": 16.3574302,
    "Latitude": 48.2298788
  },
  {
    "StopID": 120,
    "DIVA": 60200786,
    "StopText": "Liechtenwerder Platz",
    "Municipality": "Wien",
    "MunicipalityID": 90001,
    "Longitude": 16.3565047,
    "Latitude": 48.2327158
  },
  {
    "StopID": 121,
    "DIVA": 60201062,
    "StopText": "Spittelau S U",
    "Municipality": "Wien",
    "MunicipalityID": 90001,
    "Longitude": 16.3569097,
    "Latitude": 48.2361541
  },
  {
    "StopID": 122,
    "DIVA": 60201068,
    "StopText": "Rampengasse",
    "Municipality": "Wien",
    "MunicipalityID": 90001,
    "Longitude": 16.3605733,
    "Latitude": 48.2409008
  },
  {
    "StopID": 123,
    "DIVA": 60200439,
    "StopText": "Gunoldstraße",
    "Municipality": "Wien",
    "MunicipalityID": 90001,
    "Longitude": 16.361713,
    "Latitude": 48.2445144
  },
  {
    "StopID": 124,
    "DIVA": 60200301,
    "StopText": "Heiligenstadt, 12.-Februar-Platz",
    "Municipality": "Wien",
    "MunicipalityID": 90001,
    "Longitude": 16.3627486,
    "Latitude": 48.2488491
  },
  {
    "StopID": 125,
    "DIVA": 60200468,
    "StopText": "Halteraugasse",
    "Municipality": "Wien",
    "MunicipalityID": 90001,
    "Longitude": 16.36393,
    "Latitude": 48.2518875
  },
  {
    "StopID": 126,
    "DIVA": 60200428,
    "StopText": "Grinzinger Straße",
    "Municipality": "Wien",
    "MunicipalityID": 90001,
    "Longitude": 16.3653802,
    "Latitude": 48.2545919
  },
  {
    "StopID": 127,
    "DIVA": 60201231,
    "StopText": "Sickenberggasse",
    "Municipality": "Wien",
    "MunicipalityID": 90001,
    "Longitude": 16.3669994,
    "Latitude": 48.2578783
  },
  {
    "StopID": 128,
    "DIVA": 60200948,
    "StopText": "Nußdorf S",
    "Municipality": "Wien",
    "MunicipalityID": 90001,
    "Longitude": 16.3672791,
    "Latitude": 48.2599886
  },
  {
    "StopID": 130,
    "DIVA": 60200371,
    "StopText": "Seegasse",
    "Municipality": "Wien",
    "MunicipalityID": 90001,
    "Longitude": 16.3613983,
    "Latitude": 48.223033
  },
  {
    "StopID": 131,
    "DIVA": 60200467,
    "StopText": "Eckpergasse",
    "Municipality": "Wien",
    "MunicipalityID": 90001,
    "Longitude": 16.3162561,
    "Latitude": 48.2333744
  },
  {
    "StopID": 132,
    "DIVA": 60200527,
    "StopText": "Hintere Zollamtsstraße",
    "Municipality": "Wien",
    "MunicipalityID": 90001,
    "Longitude": 16.3866747,
    "Latitude": 48.2111805
  },
  {
    "StopID": 133,
    "DIVA": 60200419,
    "StopText": "Gredlerstraße",
    "Municipality": "Wien",
    "MunicipalityID": 90001,
    "Longitude": 16.3795286,
    "Latitude": 48.213945
  },
  {
    "StopID": 134,
    "DIVA": 60201198,
    "StopText": "Schwedenplatz U",
    "Municipality": "Wien",
    "MunicipalityID": 90001,
    "Longitude": 16.3776072,
    "Latitude": 48.211793
  },
  {
    "StopID": 135,
    "DIVA": 60200034,
    "StopText": "Althanstraße",
    "Municipality": "Wien",
    "MunicipalityID": 90001,
    "Longitude": 16.3596802,
    "Latitude": 48.2288122
  },
  {
    "StopID": 136,
    "DIVA": 60200034,
    "StopText": "Althanstraße",
    "Municipality": "Wien",
    "MunicipalityID": 90001,
    "Longitude": 16.3593875,
    "Latitude": 48.2289494
  },
  {
    "StopID": 137,
    "DIVA": 60200520,
    "StopText": "Hietzing U",
    "Municipality": "Wien",
    "MunicipalityID": 90001,
    "Longitude": 16.3037013,
    "Latitude": 48.1883105
  },
  {
    "StopID": 138,
    "DIVA": 60201561,
    "StopText": "Cumberlandstraße",
    "Municipality": "Wien",
    "MunicipalityID": 90001,
    "Longitude": 16.3019708,
    "Latitude": 48.192318
  },
  {
    "StopID": 139,
    "DIVA": 60200055,
    "StopText": "Ameisgasse",
    "Municipality": "Wien",
    "MunicipalityID": 90001,
    "Longitude": 16.2996552,
    "Latitude": 48.1942088
  },
  {
    "StopID": 140,
    "DIVA": 60200780,
    "StopText": "Leyserstraße",
    "Municipality": "Wien",
    "MunicipalityID": 90001,
    "Longitude": 16.3025255,
    "Latitude": 48.1983988
  },
  {
    "StopID": 141,
    "DIVA": 60200502,
    "StopText": "Herbeckstraße",
    "Municipality": "Wien",
    "MunicipalityID": 90001,
    "Longitude": 16.3174013,
    "Latitude": 48.2324527
  },
  {
    "StopID": 142,
    "DIVA": 60200026,
    "StopText": "Alsegger Straße",
    "Municipality": "Wien",
    "MunicipalityID": 90001,
    "Longitude": 16.3242366,
    "Latitude": 48.2316955
  },
  {
    "StopID": 143,
    "DIVA": 60200393,
    "StopText": "Gersthof S",
    "Municipality": "Wien",
    "MunicipalityID": 90001,
    "Longitude": 16.3293866,
    "Latitude": 48.231195
  },
  {
    "StopID": 144,
    "DIVA": 60201461,
    "StopText": "Weinhauser Gasse",
    "Municipality": "Wien",
    "MunicipalityID": 90001,
    "Longitude": 16.3326055,
    "Latitude": 48.2297627
  },
  {
    "StopID": 145,
    "DIVA": 60200101,
    "StopText": "Aumannplatz",
    "Municipality": "Wien",
    "MunicipalityID": 90001,
    "Longitude": 16.3363836,
    "Latitude": 48.2283861
  },
  {
    "StopID": 146,
    "DIVA": 60200843,
    "StopText": "Martinstraße",
    "Municipality": "Wien",
    "MunicipalityID": 90001,
    "Longitude": 16.3421086,
    "Latitude": 48.2266125
  },
  {
    "StopID": 147,
    "DIVA": 60201510,
    "StopText": "Währinger Straße, Volksoper U",
    "Municipality": "Wien",
    "MunicipalityID": 90001,
    "Longitude": 16.3495202,
    "Latitude": 48.2246952
  },
  {
    "StopID": 148,
    "DIVA": 60201288,
    "StopText": "Spitalgasse",
    "Municipality": "Wien",
    "MunicipalityID": 90001,
    "Longitude": 16.3530841,
    "Latitude": 48.2223636
  },
  {
    "StopID": 149,
    "DIVA": 60201226,
    "StopText": "Sensengasse",
    "Municipality": "Wien",
    "MunicipalityID": 90001,
    "Longitude": 16.3553794,
    "Latitude": 48.2208238
  },
  {
    "StopID": 150,
    "DIVA": 60201197,
    "StopText": "Schwarzspanierstraße",
    "Municipality": "Wien",
    "MunicipalityID": 90001,
    "Longitude": 16.3591391,
    "Latitude": 48.2173327
  },
  {
    "StopID": 151,
    "DIVA": 60200889,
    "StopText": "Montleartstraße",
    "Municipality": "Wien",
    "MunicipalityID": 90001,
    "Longitude": 16.3021244,
    "Latitude": 48.2024597
  },
  {
    "StopID": 152,
    "DIVA": 60200187,
    "StopText": "Burgersteingasse",
    "Municipality": "Wien",
    "MunicipalityID": 90001,
    "Longitude": 16.2980511,
    "Latitude": 48.2026322
  },
  {
    "StopID": 153,
    "DIVA": 60200156,
    "StopText": "Breitenseer Straße, Braillegasse",
    "Municipality": "Wien",
    "MunicipalityID": 90001,
    "Longitude": 16.2949875,
    "Latitude": 48.2027841
  },
  {
    "StopID": 154,
    "DIVA": 60200156,
    "StopText": "Breitenseer Straße, Braillegasse",
    "Municipality": "Wien",
    "MunicipalityID": 90001,
    "Longitude": 16.2949475,
    "Latitude": 48.2026366
  },
  {
    "StopID": 155,
    "DIVA": 60200187,
    "StopText": "Burgersteingasse",
    "Municipality": "Wien",
    "MunicipalityID": 90001,
    "Longitude": 16.2980886,
    "Latitude": 48.2025222
  },
  {
    "StopID": 156,
    "DIVA": 60200889,
    "StopText": "Montleartstraße",
    "Municipality": "Wien",
    "MunicipalityID": 90001,
    "Longitude": 16.302155,
    "Latitude": 48.2023441
  },
  {
    "StopID": 157,
    "DIVA": 60200780,
    "StopText": "Leyserstraße",
    "Municipality": "Wien",
    "MunicipalityID": 90001,
    "Longitude": 16.3022113,
    "Latitude": 48.1978977
  },
  {
    "StopID": 158,
    "DIVA": 60200055,
    "StopText": "Ameisgasse",
    "Municipality": "Wien",
    "MunicipalityID": 90001,
    "Longitude": 16.2994694,
    "Latitude": 48.1947525
  },
  {
    "StopID": 159,
    "DIVA": 60201561,
    "StopText": "Cumberlandstraße",
    "Municipality": "Wien",
    "MunicipalityID": 90001,
    "Longitude": 16.3016975,
    "Latitude": 48.1922211
  },
  {
    "StopID": 160,
    "DIVA": 60201210,
    "StopText": "Schöffelgasse",
    "Municipality": "Wien",
    "MunicipalityID": 90001,
    "Longitude": 16.3260927,
    "Latitude": 48.2316672
  },
  {
    "StopID": 161,
    "DIVA": 60200743,
    "StopText": "Landstraße, Wien Mitte S U",
    "Municipality": "Wien",
    "MunicipalityID": 90001,
    "Longitude": 16.3854169,
    "Latitude": 48.2056808
  },
  {
    "StopID": 162,
    "DIVA": 60200845,
    "StopText": "Marxergasse",
    "Municipality": "Wien",
    "MunicipalityID": 90001,
    "Longitude": 16.3865694,
    "Latitude": 48.2072919
  },
  {
    "StopID": 163,
    "DIVA": 60200527,
    "StopText": "Hintere Zollamtsstraße",
    "Municipality": "Wien",
    "MunicipalityID": 90001,
    "Longitude": 16.3869783,
    "Latitude": 48.2109444
  },
  {
    "StopID": 164,
    "DIVA": 60201063,
    "StopText": "Radetzkyplatz",
    "Municipality": "Wien",
    "MunicipalityID": 90001,
    "Longitude": 16.3897536,
    "Latitude": 48.2109822
  },
  {
    "StopID": 165,
    "DIVA": 60200513,
    "StopText": "Hetzgasse",
    "Municipality": "Wien",
    "MunicipalityID": 90001,
    "Longitude": 16.3928941,
    "Latitude": 48.2084725
  },
  {
    "StopID": 166,
    "DIVA": 60201071,
    "StopText": "Löwengasse",
    "Municipality": "Wien",
    "MunicipalityID": 90001,
    "Longitude": 16.3943586,
    "Latitude": 48.2062686
  },
  {
    "StopID": 167,
    "DIVA": 60201497,
    "StopText": "Wittelsbachstraße",
    "Municipality": "Wien",
    "MunicipalityID": 90001,
    "Longitude": 16.3996147,
    "Latitude": 48.2061497
  },
  {
    "StopID": 168,
    "DIVA": 60200486,
    "StopText": "Prater Hauptallee",
    "Municipality": "Wien",
    "MunicipalityID": 90001,
    "Longitude": 16.4060852,
    "Latitude": 48.2091405
  },
  {
    "StopID": 169,
    "DIVA": 60200486,
    "StopText": "Prater Hauptallee",
    "Municipality": "Wien",
    "MunicipalityID": 90001,
    "Longitude": 16.4053211,
    "Latitude": 48.2087394
  },
  {
    "StopID": 170,
    "DIVA": 60201497,
    "StopText": "Wittelsbachstraße",
    "Municipality": "Wien",
    "MunicipalityID": 90001,
    "Longitude": 16.3991627,
    "Latitude": 48.2061397
  },
  {
    "StopID": 171,
    "DIVA": 60201071,
    "StopText": "Löwengasse",
    "Municipality": "Wien",
    "MunicipalityID": 90001,
    "Longitude": 16.3955686,
    "Latitude": 48.2058158
  },
  {
    "StopID": 172,
    "DIVA": 60200513,
    "StopText": "Hetzgasse",
    "Municipality": "Wien",
    "MunicipalityID": 90001,
    "Longitude": 16.3930613,
    "Latitude": 48.2083161
  },
  {
    "StopID": 173,
    "DIVA": 60201063,
    "StopText": "Radetzkyplatz",
    "Municipality": "Wien",
    "MunicipalityID": 90001,
    "Longitude": 16.3905427,
    "Latitude": 48.2105244
  },
  {
    "StopID": 174,
    "DIVA": 60200527,
    "StopText": "Hintere Zollamtsstraße",
    "Municipality": "Wien",
    "MunicipalityID": 90001,
    "Longitude": 16.3873005,
    "Latitude": 48.2111713
  },
  {
    "StopID": 175,
    "DIVA": 60200845,
    "StopText": "Marxergasse",
    "Municipality": "Wien",
    "MunicipalityID": 90001,
    "Longitude": 16.3865672,
    "Latitude": 48.2078586
  },
  {
    "StopID": 176,
    "DIVA": 60200743,
    "StopText": "Landstraße, Wien Mitte S U",
    "Municipality": "Wien",
    "MunicipalityID": 90001,
    "Longitude": 16.385633,
    "Latitude": 48.2059388
  },
  {
    "StopID": 177,
    "DIVA": 60200732,
    "StopText": "Kutschkergasse",
    "Municipality": "Wien",
    "MunicipalityID": 90001,
    "Longitude": 16.344863,
    "Latitude": 48.2261313
  },
  {
    "StopID": 178,
    "DIVA": 60200054,
    "StopText": "Ameisbachzeile, Hanuschkrankenhaus",
    "Municipality": "Wien",
    "MunicipalityID": 90001,
    "Longitude": 16.2921497,
    "Latitude": 48.2014538
  },
  {
    "StopID": 179,
    "DIVA": 60200764,
    "StopText": "Lebingergasse",
    "Municipality": "Wien",
    "MunicipalityID": 90001,
    "Longitude": 16.2900863,
    "Latitude": 48.2040394
  },
  {
    "StopID": 180,
    "DIVA": 60200339,
    "StopText": "Flötzersteigbrücke",
    "Municipality": "Wien",
    "MunicipalityID": 90001,
    "Longitude": 16.2906897,
    "Latitude": 48.2067441
  },
  {
    "StopID": 181,
    "DIVA": 60200846,
    "StopText": "Matschgasse",
    "Municipality": "Wien",
    "MunicipalityID": 90001,
    "Longitude": 16.2909172,
    "Latitude": 48.2087155
  },
  {
    "StopID": 182,
    "DIVA": 60200983,
    "StopText": "Ottakringer Bad",
    "Municipality": "Wien",
    "MunicipalityID": 90001,
    "Longitude": 16.2888144,
    "Latitude": 48.2115288
  },
  {
    "StopID": 183,
    "DIVA": 60200846,
    "StopText": "Matschgasse",
    "Municipality": "Wien",
    "MunicipalityID": 90001,
    "Longitude": 16.2906775,
    "Latitude": 48.2087183
  },
  {
    "StopID": 184,
    "DIVA": 60200339,
    "StopText": "Flötzersteigbrücke",
    "Municipality": "Wien",
    "MunicipalityID": 90001,
    "Longitude": 16.2905105,
    "Latitude": 48.2066102
  },
  {
    "StopID": 185,
    "DIVA": 60200764,
    "StopText": "Lebingergasse",
    "Municipality": "Wien",
    "MunicipalityID": 90001,
    "Longitude": 16.2899125,
    "Latitude": 48.2040594
  },
  {
    "StopID": 186,
    "DIVA": 60200054,
    "StopText": "Ameisbachzeile, Hanuschkrankenhaus",
    "Municipality": "Wien",
    "MunicipalityID": 90001,
    "Longitude": 16.2920677,
    "Latitude": 48.2012413
  },
  {
    "StopID": 187,
    "DIVA": 60200732,
    "StopText": "Kutschkergasse",
    "Municipality": "Wien",
    "MunicipalityID": 90001,
    "Longitude": 16.344753,
    "Latitude": 48.2261538
  },
  {
    "StopID": 188,
    "DIVA": 60201288,
    "StopText": "Spitalgasse",
    "Municipality": "Wien",
    "MunicipalityID": 90001,
    "Longitude": 16.3535136,
    "Latitude": 48.2221238
  },
  {
    "StopID": 189,
    "DIVA": 60201510,
    "StopText": "Währinger Straße, Volksoper U",
    "Municipality": "Wien",
    "MunicipalityID": 90001,
    "Longitude": 16.3492263,
    "Latitude": 48.2249494
  },
  {
    "StopID": 190,
    "DIVA": 60200843,
    "StopText": "Martinstraße",
    "Municipality": "Wien",
    "MunicipalityID": 90001,
    "Longitude": 16.3426472,
    "Latitude": 48.2265869
  },
  {
    "StopID": 191,
    "DIVA": 60200101,
    "StopText": "Aumannplatz",
    "Municipality": "Wien",
    "MunicipalityID": 90001,
    "Longitude": 16.3366869,
    "Latitude": 48.2280144
  },
  {
    "StopID": 192,
    "DIVA": 60201461,
    "StopText": "Weinhauser Gasse",
    "Municipality": "Wien",
    "MunicipalityID": 90001,
    "Longitude": 16.3316225,
    "Latitude": 48.2301441
  },
  {
    "StopID": 193,
    "DIVA": 60200393,
    "StopText": "Gersthof S",
    "Municipality": "Wien",
    "MunicipalityID": 90001,
    "Longitude": 16.32877,
    "Latitude": 48.231768
  },
  {
    "StopID": 194,
    "DIVA": 60200026,
    "StopText": "Alsegger Straße",
    "Municipality": "Wien",
    "MunicipalityID": 90001,
    "Longitude": 16.324535,
    "Latitude": 48.2316794
  },
  {
    "StopID": 195,
    "DIVA": 60200502,
    "StopText": "Herbeckstraße",
    "Municipality": "Wien",
    "MunicipalityID": 90001,
    "Longitude": 16.3180775,
    "Latitude": 48.232438
  },
  {
    "StopID": 196,
    "DIVA": 60200438,
    "StopText": "Guneschgasse",
    "Municipality": "Wien",
    "MunicipalityID": 90001,
    "Longitude": 16.3535494,
    "Latitude": 48.2364505
  },
  {
    "StopID": 197,
    "DIVA": 60200135,
    "StopText": "Döblinger Hauptstraße, Gatterburggasse",
    "Municipality": "Wien",
    "MunicipalityID": 90001,
    "Longitude": 16.3546155,
    "Latitude": 48.2388191
  },
  {
    "StopID": 198,
    "DIVA": 60201030,
    "StopText": "Pokornygasse",
    "Municipality": "Wien",
    "MunicipalityID": 90001,
    "Longitude": 16.3555102,
    "Latitude": 48.240998
  },
  {
    "StopID": 199,
    "DIVA": 60200109,
    "StopText": "Barawitzkagasse",
    "Municipality": "Wien",
    "MunicipalityID": 90001,
    "Longitude": 16.3556572,
    "Latitude": 48.2444958
  },
  {
    "StopID": 200,
    "DIVA": 60201008,
    "StopText": "Perntergasse",
    "Municipality": "Wien",
    "MunicipalityID": 90001,
    "Longitude": 16.3551211,
    "Latitude": 48.2488263
  },
  {
    "StopID": 201,
    "DIVA": 60200540,
    "StopText": "Hohe Warte",
    "Municipality": "Wien",
    "MunicipalityID": 90001,
    "Longitude": 16.355375,
    "Latitude": 48.2510227
  },
  {
    "StopID": 202,
    "DIVA": 60201008,
    "StopText": "Perntergasse",
    "Municipality": "Wien",
    "MunicipalityID": 90001,
    "Longitude": 16.3550427,
    "Latitude": 48.2492377
  },
  {
    "StopID": 203,
    "DIVA": 60200109,
    "StopText": "Barawitzkagasse",
    "Municipality": "Wien",
    "MunicipalityID": 90001,
    "Longitude": 16.3557438,
    "Latitude": 48.2447355
  },
  {
    "StopID": 204,
    "DIVA": 60201030,
    "StopText": "Pokornygasse",
    "Municipality": "Wien",
    "MunicipalityID": 90001,
    "Longitude": 16.3555175,
    "Latitude": 48.2412975
  },
  {
    "StopID": 205,
    "DIVA": 60200135,
    "StopText": "Döblinger Hauptstraße, Gatterburggasse",
    "Municipality": "Wien",
    "MunicipalityID": 90001,
    "Longitude": 16.3546525,
    "Latitude": 48.239003
  },
  {
    "StopID": 206,
    "DIVA": 60200438,
    "StopText": "Guneschgasse",
    "Municipality": "Wien",
    "MunicipalityID": 90001,
    "Longitude": 16.3535986,
    "Latitude": 48.2366605
  },
  {
    "StopID": 207,
    "DIVA": 60200405,
    "StopText": "Glatzgasse",
    "Municipality": "Wien",
    "MunicipalityID": 90001,
    "Longitude": 16.3530016,
    "Latitude": 48.2335691
  },
  {
    "StopID": 208,
    "DIVA": 60200950,
    "StopText": "Nußdorfer Straße U",
    "Municipality": "Wien",
    "MunicipalityID": 90001,
    "Longitude": 16.3537591,
    "Latitude": 48.23234
  },
  {
    "StopID": 209,
    "DIVA": 60200202,
    "StopText": "Canisiusgasse",
    "Municipality": "Wien",
    "MunicipalityID": 90001,
    "Longitude": 16.3548025,
    "Latitude": 48.2281527
  },
  {
    "StopID": 210,
    "DIVA": 60200029,
    "StopText": "Nußdorfer Straße / Alserbachstraße",
    "Municipality": "Wien",
    "MunicipalityID": 90001,
    "Longitude": 16.3546558,
    "Latitude": 48.225068
  },
  {
    "StopID": 211,
    "DIVA": 60201288,
    "StopText": "Spitalgasse",
    "Municipality": "Wien",
    "MunicipalityID": 90001,
    "Longitude": 16.3533883,
    "Latitude": 48.2224494
  },
  {
    "StopID": 212,
    "DIVA": 60200252,
    "StopText": "Döblinger Bad",
    "Municipality": "Wien",
    "MunicipalityID": 90001,
    "Longitude": 16.3568108,
    "Latitude": 48.2511552
  },
  {
    "StopID": 213,
    "DIVA": 60200029,
    "StopText": "Nußdorfer Straße / Alserbachstraße",
    "Municipality": "Wien",
    "MunicipalityID": 90001,
    "Longitude": 16.3552197,
    "Latitude": 48.2258094
  },
  {
    "StopID": 214,
    "DIVA": 60200202,
    "StopText": "Canisiusgasse",
    "Municipality": "Wien",
    "MunicipalityID": 90001,
    "Longitude": 16.3548786,
    "Latitude": 48.2280363
  },
  {
    "StopID": 215,
    "DIVA": 60200950,
    "StopText": "Nußdorfer Straße U",
    "Municipality": "Wien",
    "MunicipalityID": 90001,
    "Longitude": 16.3542888,
    "Latitude": 48.2316016
  },
  {
    "StopID": 216,
    "DIVA": 60200405,
    "StopText": "Glatzgasse",
    "Municipality": "Wien",
    "MunicipalityID": 90001,
    "Longitude": 16.3533138,
    "Latitude": 48.2331491
  },
  {
    "StopID": 217,
    "DIVA": 60200747,
    "StopText": "Lange Gasse",
    "Municipality": "Wien",
    "MunicipalityID": 90001,
    "Longitude": 16.3511933,
    "Latitude": 48.21498
  },
  {
    "StopID": 218,
    "DIVA": 60201267,
    "StopText": "Skodagasse",
    "Municipality": "Wien",
    "MunicipalityID": 90001,
    "Longitude": 16.348595,
    "Latitude": 48.2152222
  },
  {
    "StopID": 219,
    "DIVA": 60200178,
    "StopText": "Brünnlbadgasse",
    "Municipality": "Wien",
    "MunicipalityID": 90001,
    "Longitude": 16.3461886,
    "Latitude": 48.21543
  },
  {
    "StopID": 220,
    "DIVA": 60200027,
    "StopText": "Alser Straße U",
    "Municipality": "Wien",
    "MunicipalityID": 90001,
    "Longitude": 16.3417477,
    "Latitude": 48.2172397
  },
  {
    "StopID": 221,
    "DIVA": 60200988,
    "StopText": "Palffygasse",
    "Municipality": "Wien",
    "MunicipalityID": 90001,
    "Longitude": 16.3364038,
    "Latitude": 48.21765
  },
  {
    "StopID": 222,
    "DIVA": 60200276,
    "StopText": "Elterleinplatz",
    "Municipality": "Wien",
    "MunicipalityID": 90001,
    "Longitude": 16.331593,
    "Latitude": 48.2181627
  },
  {
    "StopID": 223,
    "DIVA": 60201115,
    "StopText": "Rosensteingasse",
    "Municipality": "Wien",
    "MunicipalityID": 90001,
    "Longitude": 16.3268686,
    "Latitude": 48.2192722
  },
  {
    "StopID": 224,
    "DIVA": 60200508,
    "StopText": "Hernals, Wattgasse",
    "Municipality": "Wien",
    "MunicipalityID": 90001,
    "Longitude": 16.3215469,
    "Latitude": 48.2214938
  },
  {
    "StopID": 225,
    "DIVA": 60200508,
    "StopText": "Bahnhof Hernals",
    "Municipality": "Wien",
    "MunicipalityID": 90001,
    "Longitude": 16.3198586,
    "Latitude": 48.2220994
  },
  {
    "StopID": 229,
    "DIVA": 60200508,
    "StopText": "Bhf.Hls. - Bedarfshaltes",
    "Municipality": "Wien",
    "MunicipalityID": 90001,
    "Longitude": null,
    "Latitude": null
  },
  {
    "StopID": 230,
    "DIVA": 60200508,
    "StopText": "Hernals, Wattgasse",
    "Municipality": "Wien",
    "MunicipalityID": 90001,
    "Longitude": 16.3219638,
    "Latitude": 48.2213055
  },
  {
    "StopID": 231,
    "DIVA": 60201115,
    "StopText": "Rosensteingasse",
    "Municipality": "Wien",
    "MunicipalityID": 90001,
    "Longitude": 16.3273938,
    "Latitude": 48.2190072
  },
  {
    "StopID": 232,
    "DIVA": 60200276,
    "StopText": "Elterleinplatz",
    "Municipality": "Wien",
    "MunicipalityID": 90001,
    "Longitude": 16.3331683,
    "Latitude": 48.2180916
  },
  {
    "StopID": 233,
    "DIVA": 60200988,
    "StopText": "Palffygasse",
    "Municipality": "Wien",
    "MunicipalityID": 90001,
    "Longitude": 16.3368569,
    "Latitude": 48.2175505
  },
  {
    "StopID": 234,
    "DIVA": 60200027,
    "StopText": "Alser Straße U",
    "Municipality": "Wien",
    "MunicipalityID": 90001,
    "Longitude": 16.3422952,
    "Latitude": 48.2171388
  },
  {
    "StopID": 235,
    "DIVA": 60200178,
    "StopText": "Brünnlbadgasse",
    "Municipality": "Wien",
    "MunicipalityID": 90001,
    "Longitude": 16.3456458,
    "Latitude": 48.2154308
  },
  {
    "StopID": 236,
    "DIVA": 60201267,
    "StopText": "Skodagasse",
    "Municipality": "Wien",
    "MunicipalityID": 90001,
    "Longitude": 16.3490608,
    "Latitude": 48.2151522
  },
  {
    "StopID": 237,
    "DIVA": 60200747,
    "StopText": "Lange Gasse",
    "Municipality": "Wien",
    "MunicipalityID": 90001,
    "Longitude": 16.3506416,
    "Latitude": 48.2150008
  },
  {
    "StopID": 238,
    "DIVA": 60200742,
    "StopText": "Landesgerichtsstraße",
    "Municipality": "Wien",
    "MunicipalityID": 90001,
    "Longitude": 16.3575711,
    "Latitude": 48.2144022
  },
  {
    "StopID": 239,
    "DIVA": 60201728,
    "StopText": "Hainburger Straße",
    "Municipality": "Wien",
    "MunicipalityID": 90001,
    "Longitude": 16.3971433,
    "Latitude": 48.1989666
  },
  {
    "StopID": 240,
    "DIVA": 60200540,
    "StopText": "Hohe Warte",
    "Municipality": "Wien",
    "MunicipalityID": 90001,
    "Longitude": 16.3553975,
    "Latitude": 48.2516275
  },
  {
    "StopID": 241,
    "DIVA": 60200840,
    "StopText": "Maroltingergasse",
    "Municipality": "Wien",
    "MunicipalityID": 90001,
    "Longitude": 16.3056525,
    "Latitude": 48.2143213
  },
  {
    "StopID": 242,
    "DIVA": 60200840,
    "StopText": "Maroltingergasse",
    "Municipality": "Wien",
    "MunicipalityID": 90001,
    "Longitude": 16.3061691,
    "Latitude": 48.2135038
  },
  {
    "StopID": 243,
    "DIVA": 60201865,
    "StopText": "Weinheimergasse",
    "Municipality": "Wien",
    "MunicipalityID": 90001,
    "Longitude": 16.3112405,
    "Latitude": 48.2136869
  },
  {
    "StopID": 244,
    "DIVA": 60201080,
    "StopText": "Redtenbachergasse",
    "Municipality": "Wien",
    "MunicipalityID": 90001,
    "Longitude": 16.3145122,
    "Latitude": 48.21333
  },
  {
    "StopID": 245,
    "DIVA": 60200669,
    "StopText": "Familienplatz",
    "Municipality": "Wien",
    "MunicipalityID": 90001,
    "Longitude": 16.3187119,
    "Latitude": 48.2134816
  },
  {
    "StopID": 246,
    "DIVA": 60200602,
    "StopText": "Johann-Nepomuk-Berger-Platz",
    "Municipality": "Wien",
    "MunicipalityID": 90001,
    "Longitude": 16.3253058,
    "Latitude": 48.2131641
  },
  {
    "StopID": 247,
    "DIVA": 60200456,
    "StopText": "Haberlgasse",
    "Municipality": "Wien",
    "MunicipalityID": 90001,
    "Longitude": 16.3310325,
    "Latitude": 48.2117163
  },
  {
    "StopID": 248,
    "DIVA": 60200173,
    "StopText": "Brunnengasse",
    "Municipality": "Wien",
    "MunicipalityID": 90001,
    "Longitude": 16.3358205,
    "Latitude": 48.2111044
  },
  {
    "StopID": 249,
    "DIVA": 60200615,
    "StopText": "Josefstädter Straße U",
    "Municipality": "Wien",
    "MunicipalityID": 90001,
    "Longitude": 16.3393583,
    "Latitude": 48.2110997
  },
  {
    "StopID": 250,
    "DIVA": 60200019,
    "StopText": "Albertgasse",
    "Municipality": "Wien",
    "MunicipalityID": 90001,
    "Longitude": 16.3435941,
    "Latitude": 48.2106497
  },
  {
    "StopID": 251,
    "DIVA": 60201559,
    "StopText": "Josefstädter Str. / Lederergasse",
    "Municipality": "Wien",
    "MunicipalityID": 90001,
    "Longitude": 16.3486225,
    "Latitude": 48.2096427
  },
  {
    "StopID": 252,
    "DIVA": 60201072,
    "StopText": "Rathaus U",
    "Municipality": "Wien",
    "MunicipalityID": 90001,
    "Longitude": 16.3549258,
    "Latitude": 48.20922
  },
  {
    "StopID": 253,
    "DIVA": 60200743,
    "StopText": "Landstraße S U",
    "Municipality": "Wien",
    "MunicipalityID": 90001,
    "Longitude": 16.3839569,
    "Latitude": 48.2062022
  },
  {
    "StopID": 254,
    "DIVA": 60201450,
    "StopText": "Hintzerstraße",
    "Municipality": "Wien",
    "MunicipalityID": 90001,
    "Longitude": 16.3930747,
    "Latitude": 48.2002772
  },
  {
    "StopID": 256,
    "DIVA": 60200075,
    "StopText": "Apostelgasse",
    "Municipality": "Wien",
    "MunicipalityID": 90001,
    "Longitude": 16.3982088,
    "Latitude": 48.2003358
  },
  {
    "StopID": 257,
    "DIVA": 60200653,
    "StopText": "Kardinal-Nagl-Platz U",
    "Municipality": "Wien",
    "MunicipalityID": 90001,
    "Longitude": 16.4013172,
    "Latitude": 48.1978441
  },
  {
    "StopID": 258,
    "DIVA": 60200765,
    "StopText": "Lechnerstraße",
    "Municipality": "Wien",
    "MunicipalityID": 90001,
    "Longitude": 16.4048141,
    "Latitude": 48.1965861
  },
  {
    "StopID": 259,
    "DIVA": 60200743,
    "StopText": "Landstraße S U",
    "Municipality": "Wien",
    "MunicipalityID": 90001,
    "Longitude": 16.3840344,
    "Latitude": 48.2063122
  },
  {
    "StopID": 262,
    "DIVA": 60200765,
    "StopText": "Lechnerstraße",
    "Municipality": "Wien",
    "MunicipalityID": 90001,
    "Longitude": 16.4048966,
    "Latitude": 48.1966602
  },
  {
    "StopID": 263,
    "DIVA": 60200653,
    "StopText": "Kardinal-Nagl-Platz U",
    "Municipality": "Wien",
    "MunicipalityID": 90001,
    "Longitude": 16.4019102,
    "Latitude": 48.19702
  },
  {
    "StopID": 264,
    "DIVA": 60201061,
    "StopText": "Rabengasse",
    "Municipality": "Wien",
    "MunicipalityID": 90001,
    "Longitude": 16.3978636,
    "Latitude": 48.1944058
  },
  {
    "StopID": 265,
    "DIVA": 60201694,
    "StopText": "Klimschgasse",
    "Municipality": "Wien",
    "MunicipalityID": 90001,
    "Longitude": 16.3958766,
    "Latitude": 48.1927491
  },
  {
    "StopID": 266,
    "DIVA": 60200110,
    "StopText": "Barichgasse",
    "Municipality": "Wien",
    "MunicipalityID": 90001,
    "Longitude": 16.3949397,
    "Latitude": 48.1983252
  },
  {
    "StopID": 267,
    "DIVA": 60201450,
    "StopText": "Hintzerstraße",
    "Municipality": "Wien",
    "MunicipalityID": 90001,
    "Longitude": 16.3926822,
    "Latitude": 48.2008675
  },
  {
    "StopID": 268,
    "DIVA": 60200245,
    "StopText": "Stubentor U",
    "Municipality": "Wien",
    "MunicipalityID": 90001,
    "Longitude": 16.38103,
    "Latitude": 48.2069683
  },
  {
    "StopID": 269,
    "DIVA": 60201072,
    "StopText": "Rathaus U",
    "Municipality": "Wien",
    "MunicipalityID": 90001,
    "Longitude": 16.3553788,
    "Latitude": 48.2092605
  },
  {
    "StopID": 270,
    "DIVA": 60201559,
    "StopText": "Josefstädter Str. / Lederergasse",
    "Municipality": "Wien",
    "MunicipalityID": 90001,
    "Longitude": 16.3489469,
    "Latitude": 48.2096308
  },
  {
    "StopID": 271,
    "DIVA": 60200019,
    "StopText": "Albertgasse",
    "Municipality": "Wien",
    "MunicipalityID": 90001,
    "Longitude": 16.3442777,
    "Latitude": 48.2105697
  },
  {
    "StopID": 272,
    "DIVA": 60200148,
    "StopText": "Blindengasse",
    "Municipality": "Wien",
    "MunicipalityID": 90001,
    "Longitude": 16.3407958,
    "Latitude": 48.2109752
  },
  {
    "StopID": 273,
    "DIVA": 60200615,
    "StopText": "Josefstädter Straße U",
    "Municipality": "Wien",
    "MunicipalityID": 90001,
    "Longitude": 16.3389163,
    "Latitude": 48.21105
  },
  {
    "StopID": 274,
    "DIVA": 60200173,
    "StopText": "Brunnengasse",
    "Municipality": "Wien",
    "MunicipalityID": 90001,
    "Longitude": 16.3361116,
    "Latitude": 48.2110947
  },
  {
    "StopID": 275,
    "DIVA": 60200456,
    "StopText": "Neulerchenfelder Str. / Haberlgasse",
    "Municipality": "Wien",
    "MunicipalityID": 90001,
    "Longitude": 16.3312833,
    "Latitude": 48.211708
  },
  {
    "StopID": 276,
    "DIVA": 60200602,
    "StopText": "Johann-Nepomuk-Berger-Platz",
    "Municipality": "Wien",
    "MunicipalityID": 90001,
    "Longitude": 16.3258375,
    "Latitude": 48.2130272
  },
  {
    "StopID": 277,
    "DIVA": 60200669,
    "StopText": "Familienplatz",
    "Municipality": "Wien",
    "MunicipalityID": 90001,
    "Longitude": 16.31935,
    "Latitude": 48.2135133
  },
  {
    "StopID": 278,
    "DIVA": 60201080,
    "StopText": "Redtenbachergasse",
    "Municipality": "Wien",
    "MunicipalityID": 90001,
    "Longitude": 16.3147672,
    "Latitude": 48.2133319
  },
  {
    "StopID": 279,
    "DIVA": 60200601,
    "StopText": "Johannes-Krawarik-Gasse",
    "Municipality": "Wien",
    "MunicipalityID": 90001,
    "Longitude": 16.3085955,
    "Latitude": 48.2138819
  },
  {
    "StopID": 280,
    "DIVA": 60200688,
    "StopText": "Kleistgasse",
    "Municipality": "Wien",
    "MunicipalityID": 90001,
    "Longitude": 16.3910652,
    "Latitude": 48.193568
  },
  {
    "StopID": 281,
    "DIVA": 60200110,
    "StopText": "Barichgasse",
    "Municipality": "Wien",
    "MunicipalityID": 90001,
    "Longitude": 16.3948841,
    "Latitude": 48.1980758
  },
  {
    "StopID": 282,
    "DIVA": 60200292,
    "StopText": "Eslarngasse",
    "Municipality": "Wien",
    "MunicipalityID": 90001,
    "Longitude": 16.3959105,
    "Latitude": 48.1964572
  },
  {
    "StopID": 283,
    "DIVA": 60201061,
    "StopText": "Rabengasse",
    "Municipality": "Wien",
    "MunicipalityID": 90001,
    "Longitude": 16.3977041,
    "Latitude": 48.1937708
  },
  {
    "StopID": 284,
    "DIVA": 60201425,
    "StopText": "St. Marx S",
    "Municipality": "Wien",
    "MunicipalityID": 90001,
    "Longitude": 16.3991747,
    "Latitude": 48.1881813
  },
  {
    "StopID": 286,
    "DIVA": 60200763,
    "StopText": "St. Marx S, Leberstraße",
    "Municipality": "Wien",
    "MunicipalityID": 90001,
    "Longitude": 16.3996216,
    "Latitude": 48.1878672
  },
  {
    "StopID": 287,
    "DIVA": 60201148,
    "StopText": "Viehmarktgasse",
    "Municipality": "Wien",
    "MunicipalityID": 90001,
    "Longitude": 16.4006519,
    "Latitude": 48.190693
  },
  {
    "StopID": 288,
    "DIVA": 60201425,
    "StopText": "St. Marx S",
    "Municipality": "Wien",
    "MunicipalityID": 90001,
    "Longitude": 16.3999069,
    "Latitude": 48.1885558
  },
  {
    "StopID": 289,
    "DIVA": 60200417,
    "StopText": "Grasbergergasse",
    "Municipality": "Wien",
    "MunicipalityID": 90001,
    "Longitude": 16.4003436,
    "Latitude": 48.1862597
  },
  {
    "StopID": 290,
    "DIVA": 60200538,
    "StopText": "Hofmannsthalgasse",
    "Municipality": "Wien",
    "MunicipalityID": 90001,
    "Longitude": 16.3999036,
    "Latitude": 48.1850388
  },
  {
    "StopID": 291,
    "DIVA": 60200245,
    "StopText": "Stubentor U",
    "Municipality": "Wien",
    "MunicipalityID": 90001,
    "Longitude": 16.380248,
    "Latitude": 48.207385
  },
  {
    "StopID": 292,
    "DIVA": 60201698,
    "StopText": "Petrusgasse",
    "Municipality": "Wien",
    "MunicipalityID": 90001,
    "Longitude": 16.3989591,
    "Latitude": 48.1927394
  },
  {
    "StopID": 293,
    "DIVA": 60201425,
    "StopText": "St. Marx S",
    "Municipality": "Wien",
    "MunicipalityID": 90001,
    "Longitude": 16.3995152,
    "Latitude": 48.1885844
  },
  {
    "StopID": 294,
    "DIVA": 60201061,
    "StopText": "Rabengasse",
    "Municipality": "Wien",
    "MunicipalityID": 90001,
    "Longitude": 16.3975761,
    "Latitude": 48.1942808
  },
  {
    "StopID": 295,
    "DIVA": 60200292,
    "StopText": "Eslarngasse",
    "Municipality": "Wien",
    "MunicipalityID": 90001,
    "Longitude": 16.3961197,
    "Latitude": 48.1965647
  },
  {
    "StopID": 296,
    "DIVA": 60201104,
    "StopText": "Rochusgasse U",
    "Municipality": "Wien",
    "MunicipalityID": 90001,
    "Longitude": 16.3905766,
    "Latitude": 48.2024063
  },
  {
    "StopID": 297,
    "DIVA": 60201104,
    "StopText": "Rochusgasse U",
    "Municipality": "Wien",
    "MunicipalityID": 90001,
    "Longitude": 16.3907747,
    "Latitude": 48.202495
  },
  {
    "StopID": 298,
    "DIVA": 60201471,
    "StopText": "Weyrgasse",
    "Municipality": "Wien",
    "MunicipalityID": 90001,
    "Longitude": 16.38897,
    "Latitude": 48.2040999
  },
  {
    "StopID": 299,
    "DIVA": 60201078,
    "StopText": "Raxstraße, Rudolfshügelgasse",
    "Municipality": "Wien",
    "MunicipalityID": 90001,
    "Longitude": 16.3642255,
    "Latitude": 48.1668136
  },
  {
    "StopID": 300,
    "DIVA": 60200136,
    "StopText": "Gudrunstraße",
    "Municipality": "Wien",
    "MunicipalityID": 90001,
    "Longitude": 16.3737777,
    "Latitude": 48.178878
  },
  {
    "StopID": 301,
    "DIVA": 60200211,
    "StopText": "Columbusplatz",
    "Municipality": "Wien",
    "MunicipalityID": 90001,
    "Longitude": 16.3737258,
    "Latitude": 48.182498
  },
  {
    "StopID": 302,
    "DIVA": 60201349,
    "StopText": "Hauptbahnhof S U",
    "Municipality": "Wien",
    "MunicipalityID": 90001,
    "Longitude": 16.3748986,
    "Latitude": 48.1861391
  },
  {
    "StopID": 303,
    "DIVA": 60201346,
    "StopText": "Quartier Belvedere S",
    "Municipality": "Wien",
    "MunicipalityID": 90001,
    "Longitude": 16.3805547,
    "Latitude": 48.18785
  },
  {
    "StopID": 304,
    "DIVA": 60200300,
    "StopText": "Fasangasse",
    "Municipality": "Wien",
    "MunicipalityID": 90001,
    "Longitude": 16.3847241,
    "Latitude": 48.1882686
  },
  {
    "StopID": 305,
    "DIVA": 60200736,
    "StopText": "Kölblgasse",
    "Municipality": "Wien",
    "MunicipalityID": 90001,
    "Longitude": 16.3857225,
    "Latitude": 48.1910247
  },
  {
    "StopID": 306,
    "DIVA": 60201091,
    "StopText": "Rennweg S",
    "Municipality": "Wien",
    "MunicipalityID": 90001,
    "Longitude": 16.3864058,
    "Latitude": 48.1943386
  },
  {
    "StopID": 307,
    "DIVA": 60200929,
    "StopText": "Neulinggasse",
    "Municipality": "Wien",
    "MunicipalityID": 90001,
    "Longitude": 16.387408,
    "Latitude": 48.1989661
  },
  {
    "StopID": 308,
    "DIVA": 60201218,
    "StopText": "Sechskrügelgasse",
    "Municipality": "Wien",
    "MunicipalityID": 90001,
    "Longitude": 16.3872591,
    "Latitude": 48.202428
  },
  {
    "StopID": 309,
    "DIVA": 60201040,
    "StopText": "Praterstern",
    "Municipality": "Wien",
    "MunicipalityID": 90001,
    "Longitude": null,
    "Latitude": null
  },
  {
    "StopID": 310,
    "DIVA": 60200348,
    "StopText": "Franzensbrücke",
    "Municipality": "Wien",
    "MunicipalityID": 90001,
    "Longitude": 16.3914916,
    "Latitude": 48.2140544
  },
  {
    "StopID": 311,
    "DIVA": 60201040,
    "StopText": "Praterstern S U",
    "Municipality": "Wien",
    "MunicipalityID": 90001,
    "Longitude": 16.3913822,
    "Latitude": 48.2183886
  },
  {
    "StopID": 312,
    "DIVA": 60201130,
    "StopText": "Rueppgasse",
    "Municipality": "Wien",
    "MunicipalityID": 90001,
    "Longitude": 16.3864613,
    "Latitude": 48.2205675
  },
  {
    "StopID": 313,
    "DIVA": 60200494,
    "StopText": "Taborstraße",
    "Municipality": "Wien",
    "MunicipalityID": 90001,
    "Longitude": 16.382655,
    "Latitude": 48.222235
  },
  {
    "StopID": 314,
    "DIVA": 60200051,
    "StopText": "Am Tabor",
    "Municipality": "Wien",
    "MunicipalityID": 90001,
    "Longitude": 16.3839891,
    "Latitude": 48.2256336
  },
  {
    "StopID": 315,
    "DIVA": 60201079,
    "StopText": "Rebhanngasse",
    "Municipality": "Wien",
    "MunicipalityID": 90001,
    "Longitude": 16.3882016,
    "Latitude": 48.2278205
  },
  {
    "StopID": 316,
    "DIVA": 60200578,
    "StopText": "Innstraße",
    "Municipality": "Wien",
    "MunicipalityID": 90001,
    "Longitude": 16.3869544,
    "Latitude": 48.2304013
  },
  {
    "StopID": 317,
    "DIVA": 60201385,
    "StopText": "Traisengasse S",
    "Municipality": "Wien",
    "MunicipalityID": 90001,
    "Longitude": 16.3830586,
    "Latitude": 48.233853
  },
  {
    "StopID": 318,
    "DIVA": 60200500,
    "StopText": "Dresdner Straße U",
    "Municipality": "Wien",
    "MunicipalityID": 90001,
    "Longitude": 16.3789936,
    "Latitude": 48.2374616
  },
  {
    "StopID": 319,
    "DIVA": 60200569,
    "StopText": "Höchstädtplatz",
    "Municipality": "Wien",
    "MunicipalityID": 90001,
    "Longitude": 16.3771655,
    "Latitude": 48.2390786
  },
  {
    "StopID": 320,
    "DIVA": 60200363,
    "StopText": "Friedrich-Engels-Platz",
    "Municipality": "Wien",
    "MunicipalityID": 90001,
    "Longitude": 16.3803488,
    "Latitude": 48.2441688
  },
  {
    "StopID": 321,
    "DIVA": 60200363,
    "StopText": "Friedrich-Engels-Platz",
    "Municipality": "Wien",
    "MunicipalityID": 90001,
    "Longitude": 16.3793277,
    "Latitude": 48.243928
  },
  {
    "StopID": 322,
    "DIVA": 60200569,
    "StopText": "Höchstädtplatz",
    "Municipality": "Wien",
    "MunicipalityID": 90001,
    "Longitude": 16.3770911,
    "Latitude": 48.2395925
  },
  {
    "StopID": 323,
    "DIVA": 60200500,
    "StopText": "Dresdner Straße U",
    "Municipality": "Wien",
    "MunicipalityID": 90001,
    "Longitude": 16.3793824,
    "Latitude": 48.2370661
  },
  {
    "StopID": 324,
    "DIVA": 60201385,
    "StopText": "Traisengasse S",
    "Municipality": "Wien",
    "MunicipalityID": 90001,
    "Longitude": 16.3833483,
    "Latitude": 48.2335541
  },
  {
    "StopID": 325,
    "DIVA": 60200578,
    "StopText": "Innstraße",
    "Municipality": "Wien",
    "MunicipalityID": 90001,
    "Longitude": 16.3866672,
    "Latitude": 48.2306111
  },
  {
    "StopID": 326,
    "DIVA": 60201079,
    "StopText": "Rebhanngasse",
    "Municipality": "Wien",
    "MunicipalityID": 90001,
    "Longitude": 16.3883391,
    "Latitude": 48.2281727
  },
  {
    "StopID": 327,
    "DIVA": 60200051,
    "StopText": "Am Tabor",
    "Municipality": "Wien",
    "MunicipalityID": 90001,
    "Longitude": 16.3836105,
    "Latitude": 48.2253516
  },
  {
    "StopID": 328,
    "DIVA": 60200494,
    "StopText": "Heinestraße, Taborstraße",
    "Municipality": "Wien",
    "MunicipalityID": 90001,
    "Longitude": 16.3824291,
    "Latitude": 48.2225052
  },
  {
    "StopID": 329,
    "DIVA": 60201130,
    "StopText": "Rueppgasse",
    "Municipality": "Wien",
    "MunicipalityID": 90001,
    "Longitude": 16.3855555,
    "Latitude": 48.2205686
  },
  {
    "StopID": 330,
    "DIVA": 60200899,
    "StopText": "Mühlfeldgasse",
    "Municipality": "Wien",
    "MunicipalityID": 90001,
    "Longitude": 16.3894161,
    "Latitude": 48.2207819
  },
  {
    "StopID": 332,
    "DIVA": 60200348,
    "StopText": "Franzensbrücke",
    "Municipality": "Wien",
    "MunicipalityID": 90001,
    "Longitude": 16.3915055,
    "Latitude": 48.213758
  },
  {
    "StopID": 333,
    "DIVA": 60201063,
    "StopText": "Radetzkyplatz",
    "Municipality": "Wien",
    "MunicipalityID": 90001,
    "Longitude": 16.3904169,
    "Latitude": 48.2111861
  },
  {
    "StopID": 334,
    "DIVA": 60201218,
    "StopText": "Sechskrügelgasse",
    "Municipality": "Wien",
    "MunicipalityID": 90001,
    "Longitude": 16.3873402,
    "Latitude": 48.2015383
  },
  {
    "StopID": 335,
    "DIVA": 60200929,
    "StopText": "Neulinggasse",
    "Municipality": "Wien",
    "MunicipalityID": 90001,
    "Longitude": 16.3873925,
    "Latitude": 48.1991847
  },
  {
    "StopID": 336,
    "DIVA": 60201091,
    "StopText": "Rennweg S",
    "Municipality": "Wien",
    "MunicipalityID": 90001,
    "Longitude": 16.3865713,
    "Latitude": 48.1953763
  },
  {
    "StopID": 337,
    "DIVA": 60200736,
    "StopText": "Kölblgasse",
    "Municipality": "Wien",
    "MunicipalityID": 90001,
    "Longitude": 16.3857283,
    "Latitude": 48.1912519
  },
  {
    "StopID": 338,
    "DIVA": 60201471,
    "StopText": "Weyrgasse",
    "Municipality": "Wien",
    "MunicipalityID": 90001,
    "Longitude": 16.3885374,
    "Latitude": 48.2041994
  },
  {
    "StopID": 339,
    "DIVA": 60201346,
    "StopText": "Quartier Belvedere S",
    "Municipality": "Wien",
    "MunicipalityID": 90001,
    "Longitude": 16.3796019,
    "Latitude": 48.1876475
  },
  {
    "StopID": 340,
    "DIVA": 60201349,
    "StopText": "Hauptbahnhof S U",
    "Municipality": "Wien",
    "MunicipalityID": 90001,
    "Longitude": 16.3742736,
    "Latitude": 48.1859741
  },
  {
    "StopID": 341,
    "DIVA": 60200211,
    "StopText": "Columbusplatz",
    "Municipality": "Wien",
    "MunicipalityID": 90001,
    "Longitude": 16.3737188,
    "Latitude": 48.1816058
  },
  {
    "StopID": 342,
    "DIVA": 60200136,
    "StopText": "Gudrunstraße",
    "Municipality": "Wien",
    "MunicipalityID": 90001,
    "Longitude": 16.3737036,
    "Latitude": 48.1777875
  },
  {
    "StopID": 343,
    "DIVA": 60201058,
    "StopText": "Quellenplatz",
    "Municipality": "Wien",
    "MunicipalityID": 90001,
    "Longitude": 16.3735472,
    "Latitude": 48.1758872
  },
  {
    "StopID": 344,
    "DIVA": 60200461,
    "StopText": "Oberzellergasse",
    "Municipality": "Wien",
    "MunicipalityID": 90001,
    "Longitude": 16.3946236,
    "Latitude": 48.1922011
  },
  {
    "StopID": 345,
    "DIVA": 60201040,
    "StopText": "Praterstern S U",
    "Municipality": "Wien",
    "MunicipalityID": 90001,
    "Longitude": 16.3915763,
    "Latitude": 48.2184011
  },
  {
    "StopID": 346,
    "DIVA": 60200941,
    "StopText": "Nordbahnstraße",
    "Municipality": "Wien",
    "MunicipalityID": 90001,
    "Longitude": 16.3893725,
    "Latitude": 48.2234847
  },
  {
    "StopID": 347,
    "DIVA": 60200051,
    "StopText": "Am Tabor",
    "Municipality": "Wien",
    "MunicipalityID": 90001,
    "Longitude": 16.3838058,
    "Latitude": 48.2251022
  },
  {
    "StopID": 348,
    "DIVA": 60200944,
    "StopText": "Nordwestbahnstraße",
    "Municipality": "Wien",
    "MunicipalityID": 90001,
    "Longitude": 16.3805863,
    "Latitude": 48.2282033
  },
  {
    "StopID": 349,
    "DIVA": 60201077,
    "StopText": "Rauscherstraße",
    "Municipality": "Wien",
    "MunicipalityID": 90001,
    "Longitude": 16.3751624,
    "Latitude": 48.2308444
  },
  {
    "StopID": 350,
    "DIVA": 60201443,
    "StopText": "Wallensteinplatz",
    "Municipality": "Wien",
    "MunicipalityID": 90001,
    "Longitude": 16.3712866,
    "Latitude": 48.230043
  },
  {
    "StopID": 351,
    "DIVA": 60201444,
    "StopText": "Klosterneuburger Str. / Wallensteinstraße",
    "Municipality": "Wien",
    "MunicipalityID": 90001,
    "Longitude": 16.3687219,
    "Latitude": 48.2288444
  },
  {
    "StopID": 352,
    "DIVA": 60200357,
    "StopText": "Friedensbrücke U",
    "Municipality": "Wien",
    "MunicipalityID": 90001,
    "Longitude": 16.3650075,
    "Latitude": 48.2270377
  },
  {
    "StopID": 353,
    "DIVA": 60200345,
    "StopText": "Franz-Josefs-Bahnhof S",
    "Municipality": "Wien",
    "MunicipalityID": 90001,
    "Longitude": 16.3610297,
    "Latitude": 48.2254825
  },
  {
    "StopID": 354,
    "DIVA": 60200029,
    "StopText": "Nußdorfer Straße",
    "Municipality": "Wien",
    "MunicipalityID": 90001,
    "Longitude": 16.3546091,
    "Latitude": 48.224723
  },
  {
    "StopID": 355,
    "DIVA": 60200762,
    "StopText": "Lazarettgasse",
    "Municipality": "Wien",
    "MunicipalityID": 90001,
    "Longitude": 16.3518266,
    "Latitude": 48.2191461
  },
  {
    "StopID": 356,
    "DIVA": 60200747,
    "StopText": "Lange Gasse",
    "Municipality": "Wien",
    "MunicipalityID": 90001,
    "Longitude": 16.3510186,
    "Latitude": 48.21525
  },
  {
    "StopID": 357,
    "DIVA": 60200753,
    "StopText": "Laudongasse",
    "Municipality": "Wien",
    "MunicipalityID": 90001,
    "Longitude": 16.3478275,
    "Latitude": 48.2132025
  },
  {
    "StopID": 358,
    "DIVA": 60200333,
    "StopText": "Florianigasse",
    "Municipality": "Wien",
    "MunicipalityID": 90001,
    "Longitude": 16.3456377,
    "Latitude": 48.2127288
  },
  {
    "StopID": 359,
    "DIVA": 60200019,
    "StopText": "Albertgasse",
    "Municipality": "Wien",
    "MunicipalityID": 90001,
    "Longitude": 16.3439311,
    "Latitude": 48.2107272
  },
  {
    "StopID": 360,
    "DIVA": 60201558,
    "StopText": "Lerchenfelder Straße",
    "Municipality": "Wien",
    "MunicipalityID": 90001,
    "Longitude": 16.3394055,
    "Latitude": 48.2087
  },
  {
    "StopID": 361,
    "DIVA": 60200644,
    "StopText": "Burggasse",
    "Municipality": "Wien",
    "MunicipalityID": 90001,
    "Longitude": 16.3400022,
    "Latitude": 48.2044438
  },
  {
    "StopID": 362,
    "DIVA": 60200646,
    "StopText": "Westbahnstraße",
    "Municipality": "Wien",
    "MunicipalityID": 90001,
    "Longitude": 16.3404627,
    "Latitude": 48.2019527
  },
  {
    "StopID": 363,
    "DIVA": 60201328,
    "StopText": "Stollgasse",
    "Municipality": "Wien",
    "MunicipalityID": 90001,
    "Longitude": 16.3410575,
    "Latitude": 48.1988516
  },
  {
    "StopID": 364,
    "DIVA": 60200643,
    "StopText": "Mariahilfer Straße / Kaiserstraße",
    "Municipality": "Wien",
    "MunicipalityID": 90001,
    "Longitude": 16.3415402,
    "Latitude": 48.1967877
  },
  {
    "StopID": 365,
    "DIVA": 60200615,
    "StopText": "Josefstädter Straße U",
    "Municipality": "Wien",
    "MunicipalityID": 90001,
    "Longitude": 16.339535,
    "Latitude": 48.2117911
  },
  {
    "StopID": 366,
    "DIVA": 60200645,
    "StopText": "Neustiftgasse",
    "Municipality": "Wien",
    "MunicipalityID": 90001,
    "Longitude": 16.3396813,
    "Latitude": 48.2061394
  },
  {
    "StopID": 367,
    "DIVA": 60200645,
    "StopText": "Neustiftgasse",
    "Municipality": "Wien",
    "MunicipalityID": 90001,
    "Longitude": 16.339753,
    "Latitude": 48.2059566
  },
  {
    "StopID": 368,
    "DIVA": 60201468,
    "StopText": "Westbahnhof (Bed.-HS)",
    "Municipality": "Wien",
    "MunicipalityID": 90001,
    "Longitude": 16.3389838,
    "Latitude": 48.1979263
  },
  {
    "StopID": 369,
    "DIVA": 60201259,
    "StopText": "Simmeringer Haide",
    "Municipality": "Wien",
    "MunicipalityID": 90001,
    "Longitude": 16.4405444,
    "Latitude": 48.1774755
  },
  {
    "StopID": 370,
    "DIVA": 60201468,
    "StopText": "Westbahnhof S U",
    "Municipality": "Wien",
    "MunicipalityID": 90001,
    "Longitude": 16.3394819,
    "Latitude": 48.1966611
  },
  {
    "StopID": 373,
    "DIVA": 60201328,
    "StopText": "Stollgasse",
    "Municipality": "Wien",
    "MunicipalityID": 90001,
    "Longitude": 16.3411455,
    "Latitude": 48.1986263
  },
  {
    "StopID": 374,
    "DIVA": 60200646,
    "StopText": "Westbahnstraße",
    "Municipality": "Wien",
    "MunicipalityID": 90001,
    "Longitude": 16.3405436,
    "Latitude": 48.2017355
  },
  {
    "StopID": 375,
    "DIVA": 60200644,
    "StopText": "Burggasse",
    "Municipality": "Wien",
    "MunicipalityID": 90001,
    "Longitude": 16.34008,
    "Latitude": 48.2042308
  },
  {
    "StopID": 376,
    "DIVA": 60201558,
    "StopText": "Lerchenfelder Straße",
    "Municipality": "Wien",
    "MunicipalityID": 90001,
    "Longitude": 16.3393452,
    "Latitude": 48.20828
  },
  {
    "StopID": 377,
    "DIVA": 60200148,
    "StopText": "Blindengasse",
    "Municipality": "Wien",
    "MunicipalityID": 90001,
    "Longitude": 16.3404738,
    "Latitude": 48.2109144
  },
  {
    "StopID": 378,
    "DIVA": 60200333,
    "StopText": "Florianigasse",
    "Municipality": "Wien",
    "MunicipalityID": 90001,
    "Longitude": 16.3451122,
    "Latitude": 48.212375
  },
  {
    "StopID": 379,
    "DIVA": 60200753,
    "StopText": "Laudongasse",
    "Municipality": "Wien",
    "MunicipalityID": 90001,
    "Longitude": 16.3501566,
    "Latitude": 48.2132902
  },
  {
    "StopID": 380,
    "DIVA": 60200747,
    "StopText": "Lange Gasse",
    "Municipality": "Wien",
    "MunicipalityID": 90001,
    "Longitude": 16.3510238,
    "Latitude": 48.21465
  },
  {
    "StopID": 381,
    "DIVA": 60200762,
    "StopText": "Lazarettgasse",
    "Municipality": "Wien",
    "MunicipalityID": 90001,
    "Longitude": 16.3516616,
    "Latitude": 48.2187561
  },
  {
    "StopID": 382,
    "DIVA": 60201288,
    "StopText": "Spitalgasse",
    "Municipality": "Wien",
    "MunicipalityID": 90001,
    "Longitude": 16.3531863,
    "Latitude": 48.2221027
  },
  {
    "StopID": 383,
    "DIVA": 60200029,
    "StopText": "Nußdorfer Straße / Alserbachstraße",
    "Municipality": "Wien",
    "MunicipalityID": 90001,
    "Longitude": 16.3556683,
    "Latitude": 48.2248972
  },
  {
    "StopID": 384,
    "DIVA": 60200345,
    "StopText": "Franz-Josefs-Bahnhof S",
    "Municipality": "Wien",
    "MunicipalityID": 90001,
    "Longitude": 16.361418,
    "Latitude": 48.2255763
  },
  {
    "StopID": 385,
    "DIVA": 60200357,
    "StopText": "Friedensbrücke U",
    "Municipality": "Wien",
    "MunicipalityID": 90001,
    "Longitude": 16.3655686,
    "Latitude": 48.2272711
  },
  {
    "StopID": 386,
    "DIVA": 60201444,
    "StopText": "Klosterneuburger Str. / Wallensteinstraße",
    "Municipality": "Wien",
    "MunicipalityID": 90001,
    "Longitude": 16.3680886,
    "Latitude": 48.2285088
  },
  {
    "StopID": 387,
    "DIVA": 60201443,
    "StopText": "Wallensteinplatz",
    "Municipality": "Wien",
    "MunicipalityID": 90001,
    "Longitude": 16.3708083,
    "Latitude": 48.2298094
  },
  {
    "StopID": 388,
    "DIVA": 60201077,
    "StopText": "Rauscherstraße",
    "Municipality": "Wien",
    "MunicipalityID": 90001,
    "Longitude": 16.3755952,
    "Latitude": 48.2305947
  },
  {
    "StopID": 389,
    "DIVA": 60200944,
    "StopText": "Nordwestbahnstraße",
    "Municipality": "Wien",
    "MunicipalityID": 90001,
    "Longitude": 16.3809363,
    "Latitude": 48.2279963
  },
  {
    "StopID": 390,
    "DIVA": 60200051,
    "StopText": "Am Tabor",
    "Municipality": "Wien",
    "MunicipalityID": 90001,
    "Longitude": 16.3831663,
    "Latitude": 48.2254111
  },
  {
    "StopID": 391,
    "DIVA": 60200941,
    "StopText": "Nordbahnstraße",
    "Municipality": "Wien",
    "MunicipalityID": 90001,
    "Longitude": 16.3891158,
    "Latitude": 48.2236438
  },
  {
    "StopID": 392,
    "DIVA": 60200899,
    "StopText": "Mühlfeldgasse",
    "Municipality": "Wien",
    "MunicipalityID": 90001,
    "Longitude": 16.3899805,
    "Latitude": 48.2209602
  },
  {
    "StopID": 396,
    "DIVA": 60200436,
    "StopText": "Gumpendorfer Straße U",
    "Municipality": "Wien",
    "MunicipalityID": 90001,
    "Longitude": 16.3378266,
    "Latitude": 48.1907
  },
  {
    "StopID": 397,
    "DIVA": 60200827,
    "StopText": "Margaretengürtel U",
    "Municipality": "Wien",
    "MunicipalityID": 90001,
    "Longitude": 16.3418566,
    "Latitude": 48.1883213
  },
  {
    "StopID": 398,
    "DIVA": 60200077,
    "StopText": "Arbeitergasse, Gürtel",
    "Municipality": "Wien",
    "MunicipalityID": 90001,
    "Longitude": 16.3458455,
    "Latitude": 48.1842019
  },
  {
    "StopID": 399,
    "DIVA": 60200267,
    "StopText": "Eichenstraße",
    "Municipality": "Wien",
    "MunicipalityID": 90001,
    "Longitude": 16.3502175,
    "Latitude": 48.1802797
  },
  {
    "StopID": 400,
    "DIVA": 60200849,
    "StopText": "Matzleinsdorfer Platz S",
    "Municipality": "Wien",
    "MunicipalityID": 90001,
    "Longitude": 16.3587186,
    "Latitude": 48.1805933
  },
  {
    "StopID": 401,
    "DIVA": 60201060,
    "StopText": "Knöllgasse",
    "Municipality": "Wien",
    "MunicipalityID": 90001,
    "Longitude": 16.358213,
    "Latitude": 48.177583
  },
  {
    "StopID": 402,
    "DIVA": 60200914,
    "StopText": "Neilreichgasse",
    "Municipality": "Wien",
    "MunicipalityID": 90001,
    "Longitude": 16.3654186,
    "Latitude": 48.1761652
  },
  {
    "StopID": 403,
    "DIVA": 60201058,
    "StopText": "Quellenplatz",
    "Municipality": "Wien",
    "MunicipalityID": 90001,
    "Longitude": 16.3731911,
    "Latitude": 48.1756308
  },
  {
    "StopID": 404,
    "DIVA": 60201095,
    "StopText": "Reumannplatz U",
    "Municipality": "Wien",
    "MunicipalityID": 90001,
    "Longitude": 16.3774875,
    "Latitude": 48.1753388
  },
  {
    "StopID": 405,
    "DIVA": 60200384,
    "StopText": "Gellertplatz",
    "Municipality": "Wien",
    "MunicipalityID": 90001,
    "Longitude": 16.3822372,
    "Latitude": 48.1750194
  },
  {
    "StopID": 406,
    "DIVA": 60200001,
    "StopText": "Schrankenberggasse",
    "Municipality": "Wien",
    "MunicipalityID": 90001,
    "Longitude": 16.389318,
    "Latitude": 48.1738438
  },
  {
    "StopID": 407,
    "DIVA": 60201598,
    "StopText": "Bernhardtstalgasse",
    "Municipality": "Wien",
    "MunicipalityID": 90001,
    "Longitude": 16.361555,
    "Latitude": 48.1764327
  },
  {
    "StopID": 408,
    "DIVA": 60200382,
    "StopText": "Geiereckstraße",
    "Municipality": "Wien",
    "MunicipalityID": 90001,
    "Longitude": 16.399858,
    "Latitude": 48.1750066
  },
  {
    "StopID": 409,
    "DIVA": 60200484,
    "StopText": "Geiselbergstraße S",
    "Municipality": "Wien",
    "MunicipalityID": 90001,
    "Longitude": 16.4063413,
    "Latitude": 48.1746844
  },
  {
    "StopID": 410,
    "DIVA": 60201263,
    "StopText": "Polkorabplatz",
    "Municipality": "Wien",
    "MunicipalityID": 90001,
    "Longitude": 16.4133286,
    "Latitude": 48.17444
  },
  {
    "StopID": 411,
    "DIVA": 60201598,
    "StopText": "Bernhardtstalgasse",
    "Municipality": "Wien",
    "MunicipalityID": 90001,
    "Longitude": 16.3620022,
    "Latitude": 48.1764291
  },
  {
    "StopID": 412,
    "DIVA": 60200425,
    "StopText": "Enkplatz U, Grillgasse",
    "Municipality": "Wien",
    "MunicipalityID": 90001,
    "Longitude": 16.4159272,
    "Latitude": 48.1739058
  },
  {
    "StopID": 413,
    "DIVA": null,
    "StopText": "Abstellplatz Hlst. 69A (Umleitung)",
    "Municipality": "Wien",
    "MunicipalityID": 90001,
    "Longitude": null,
    "Latitude": null
  },
  {
    "StopID": 414,
    "DIVA": null,
    "StopText": "Abstellplatz 13A Südtiroler Platz (Umleitung)",
    "Municipality": "Wien",
    "MunicipalityID": 90001,
    "Longitude": null,
    "Latitude": null
  },
  {
    "StopID": 415,
    "DIVA": 60201263,
    "StopText": "Polkorabplatz",
    "Municipality": "Wien",
    "MunicipalityID": 90001,
    "Longitude": 16.4113513,
    "Latitude": 48.1745494
  },
  {
    "StopID": 416,
    "DIVA": 60200484,
    "StopText": "Geiselbergstraße S",
    "Municipality": "Wien",
    "MunicipalityID": 90001,
    "Longitude": 16.4058366,
    "Latitude": 48.1747402
  },
  {
    "StopID": 418,
    "DIVA": 60200382,
    "StopText": "Geiereckstraße",
    "Municipality": "Wien",
    "MunicipalityID": 90001,
    "Longitude": 16.3993469,
    "Latitude": 48.1750688
  },
  {
    "StopID": 419,
    "DIVA": 60201574,
    "StopText": "Schemmerlstraße, Unterfeld",
    "Municipality": "Wien",
    "MunicipalityID": 90001,
    "Longitude": 16.4213561,
    "Latitude": 48.1604022
  },
  {
    "StopID": 420,
    "DIVA": 60200001,
    "StopText": "Schrankenberggasse",
    "Municipality": "Wien",
    "MunicipalityID": 90001,
    "Longitude": 16.388085,
    "Latitude": 48.1741011
  },
  {
    "StopID": 421,
    "DIVA": 60200384,
    "StopText": "Gellertplatz",
    "Municipality": "Wien",
    "MunicipalityID": 90001,
    "Longitude": 16.3831438,
    "Latitude": 48.1749411
  },
  {
    "StopID": 422,
    "DIVA": 60201095,
    "StopText": "Reumannplatz U",
    "Municipality": "Wien",
    "MunicipalityID": 90001,
    "Longitude": 16.377945,
    "Latitude": 48.1753366
  },
  {
    "StopID": 423,
    "DIVA": 60201058,
    "StopText": "Quellenplatz",
    "Municipality": "Wien",
    "MunicipalityID": 90001,
    "Longitude": 16.3738894,
    "Latitude": 48.1756108
  },
  {
    "StopID": 424,
    "DIVA": 60200914,
    "StopText": "Neilreichgasse",
    "Municipality": "Wien",
    "MunicipalityID": 90001,
    "Longitude": 16.3657808,
    "Latitude": 48.1761677
  },
  {
    "StopID": 425,
    "DIVA": 60201060,
    "StopText": "Knöllgasse",
    "Municipality": "Wien",
    "MunicipalityID": 90001,
    "Longitude": 16.3584177,
    "Latitude": 48.1772588
  },
  {
    "StopID": 426,
    "DIVA": 60200849,
    "StopText": "Matzleinsdorfer Platz S",
    "Municipality": "Wien",
    "MunicipalityID": 90001,
    "Longitude": 16.359265,
    "Latitude": 48.1804925
  },
  {
    "StopID": 427,
    "DIVA": 60200267,
    "StopText": "Eichenstraße",
    "Municipality": "Wien",
    "MunicipalityID": 90001,
    "Longitude": 16.3494613,
    "Latitude": 48.1805716
  },
  {
    "StopID": 428,
    "DIVA": 60200077,
    "StopText": "Arbeitergasse, Gürtel",
    "Municipality": "Wien",
    "MunicipalityID": 90001,
    "Longitude": 16.345378,
    "Latitude": 48.1847963
  },
  {
    "StopID": 429,
    "DIVA": 60200827,
    "StopText": "Margaretengürtel U",
    "Municipality": "Wien",
    "MunicipalityID": 90001,
    "Longitude": 16.3420111,
    "Latitude": 48.1883086
  },
  {
    "StopID": 430,
    "DIVA": 60200436,
    "StopText": "Gumpendorfer Straße U",
    "Municipality": "Wien",
    "MunicipalityID": 90001,
    "Longitude": 16.3378627,
    "Latitude": 48.1903999
  },
  {
    "StopID": 432,
    "DIVA": 60200131,
    "StopText": "Franz-Eder-Weg",
    "Municipality": "Wien",
    "MunicipalityID": 90001,
    "Longitude": 16.4345822,
    "Latitude": 48.1771405
  },
  {
    "StopID": 433,
    "DIVA": 60200319,
    "StopText": "1. Haidequerstraße Mitte",
    "Municipality": "Wien",
    "MunicipalityID": 90001,
    "Longitude": 16.4293811,
    "Latitude": 48.1826133
  },
  {
    "StopID": 434,
    "DIVA": 60200702,
    "StopText": "Kopalgasse",
    "Municipality": "Wien",
    "MunicipalityID": 90001,
    "Longitude": 16.413893,
    "Latitude": 48.1778652
  },
  {
    "StopID": 435,
    "DIVA": 60200425,
    "StopText": "Enkplatz U, Grillgasse",
    "Municipality": "Wien",
    "MunicipalityID": 90001,
    "Longitude": 16.4167283,
    "Latitude": 48.17436
  },
  {
    "StopID": 436,
    "DIVA": 60201070,
    "StopText": "Rappachgasse",
    "Municipality": "Wien",
    "MunicipalityID": 90001,
    "Longitude": null,
    "Latitude": null
  },
  {
    "StopID": 437,
    "DIVA": 60201264,
    "StopText": "Simoningplatz",
    "Municipality": "Wien",
    "MunicipalityID": 90001,
    "Longitude": 16.4205502,
    "Latitude": 48.1791075
  },
  {
    "StopID": 438,
    "DIVA": 60200465,
    "StopText": "Haidestraße S",
    "Municipality": "Wien",
    "MunicipalityID": 90001,
    "Longitude": 16.427563,
    "Latitude": 48.1797825
  },
  {
    "StopID": 439,
    "DIVA": 60200324,
    "StopText": "1. Haidequerstraße Süd",
    "Municipality": "Wien",
    "MunicipalityID": 90001,
    "Longitude": 16.4283977,
    "Latitude": 48.1811125
  },
  {
    "StopID": 440,
    "DIVA": 60200256,
    "StopText": "Kraftwerk Simmering",
    "Municipality": "Wien",
    "MunicipalityID": 90001,
    "Longitude": 16.4301908,
    "Latitude": 48.18386
  },
  {
    "StopID": 442,
    "DIVA": 60200256,
    "StopText": "Kraftwerk Simmering",
    "Municipality": "Wien",
    "MunicipalityID": 90001,
    "Longitude": 16.4297225,
    "Latitude": 48.1834686
  },
  {
    "StopID": 443,
    "DIVA": 60200957,
    "StopText": "Oriongasse",
    "Municipality": "Wien",
    "MunicipalityID": 90001,
    "Longitude": 16.439968,
    "Latitude": 48.1762825
  },
  {
    "StopID": 444,
    "DIVA": 60201259,
    "StopText": "Simmeringer Haide",
    "Municipality": "Wien",
    "MunicipalityID": 90001,
    "Longitude": 16.4407686,
    "Latitude": 48.17753
  },
  {
    "StopID": 445,
    "DIVA": 60200957,
    "StopText": "Oriongasse",
    "Municipality": "Wien",
    "MunicipalityID": 90001,
    "Longitude": 16.4398061,
    "Latitude": 48.1763422
  },
  {
    "StopID": 446,
    "DIVA": 60201264,
    "StopText": "Simoningplatz",
    "Municipality": "Wien",
    "MunicipalityID": 90001,
    "Longitude": 16.4209166,
    "Latitude": 48.1792908
  },
  {
    "StopID": 447,
    "DIVA": 60201070,
    "StopText": "Rappachgasse",
    "Municipality": "Wien",
    "MunicipalityID": 90001,
    "Longitude": 16.4248044,
    "Latitude": 48.1799986
  },
  {
    "StopID": 448,
    "DIVA": 60200715,
    "StopText": "Krausegasse",
    "Municipality": "Wien",
    "MunicipalityID": 90001,
    "Longitude": 16.4203661,
    "Latitude": 48.1749313
  },
  {
    "StopID": 449,
    "DIVA": 60200324,
    "StopText": "1. Haidequerstraße Süd",
    "Municipality": "Wien",
    "MunicipalityID": 90001,
    "Longitude": 16.4283463,
    "Latitude": 48.1813766
  },
  {
    "StopID": 455,
    "DIVA": 60200874,
    "StopText": "Michelbeuern U AKH",
    "Municipality": "Wien",
    "MunicipalityID": 90001,
    "Longitude": 16.3429483,
    "Latitude": 48.2220938
  },
  {
    "StopID": 458,
    "DIVA": 60200615,
    "StopText": "Josefstädter Straße U",
    "Municipality": "Wien",
    "MunicipalityID": 90001,
    "Longitude": 16.3388458,
    "Latitude": 48.2111533
  },
  {
    "StopID": 460,
    "DIVA": 60200188,
    "StopText": "Burggasse, Stadthalle U",
    "Municipality": "Wien",
    "MunicipalityID": 90001,
    "Longitude": 16.3374791,
    "Latitude": 48.2022441
  },
  {
    "StopID": 461,
    "DIVA": 60200188,
    "StopText": "Burggasse, Stadthalle U",
    "Municipality": "Wien",
    "MunicipalityID": 90001,
    "Longitude": 16.3371297,
    "Latitude": 48.2019191
  },
  {
    "StopID": 462,
    "DIVA": 60201413,
    "StopText": "Urban-Loritz-Platz",
    "Municipality": "Wien",
    "MunicipalityID": 90001,
    "Longitude": 16.3373877,
    "Latitude": 48.2010522
  },
  {
    "StopID": 464,
    "DIVA": 60201468,
    "StopText": "Westbahnhof S U",
    "Municipality": "Wien",
    "MunicipalityID": 90001,
    "Longitude": 16.3389605,
    "Latitude": 48.1965716
  },
  {
    "StopID": 470,
    "DIVA": 60201015,
    "StopText": "Bahnhof Meidling S U",
    "Municipality": "Wien",
    "MunicipalityID": 90001,
    "Longitude": 16.3316166,
    "Latitude": 48.1745755
  },
  {
    "StopID": 471,
    "DIVA": 60200865,
    "StopText": "Dörfelstraße",
    "Municipality": "Wien",
    "MunicipalityID": 90001,
    "Longitude": 16.3368447,
    "Latitude": 48.1756922
  },
  {
    "StopID": 472,
    "DIVA": 60200465,
    "StopText": "Haidestraße S",
    "Municipality": "Wien",
    "MunicipalityID": 90001,
    "Longitude": null,
    "Latitude": null
  },
  {
    "StopID": 473,
    "DIVA": 60200465,
    "StopText": "Haidestraße S",
    "Municipality": "Wien",
    "MunicipalityID": 90001,
    "Longitude": 16.4279494,
    "Latitude": 48.1792369
  },
  {
    "StopID": 474,
    "DIVA": 60200465,
    "StopText": "Haidestraße S",
    "Municipality": "Wien",
    "MunicipalityID": 90001,
    "Longitude": 16.4269011,
    "Latitude": 48.1791688
  },
  {
    "StopID": 475,
    "DIVA": 60200895,
    "StopText": "Murlingengasse",
    "Municipality": "Wien",
    "MunicipalityID": 90001,
    "Longitude": 16.3357316,
    "Latitude": 48.1762091
  },
  {
    "StopID": 476,
    "DIVA": 60200865,
    "StopText": "Dörfelstraße",
    "Municipality": "Wien",
    "MunicipalityID": 90001,
    "Longitude": 16.3346119,
    "Latitude": 48.1752372
  },
  {
    "StopID": 477,
    "DIVA": 60201015,
    "StopText": "Bahnhof Meidling S U",
    "Municipality": "Wien",
    "MunicipalityID": 90001,
    "Longitude": 16.3304311,
    "Latitude": 48.1743619
  },
  {
    "StopID": 481,
    "DIVA": 60200833,
    "StopText": "Mariahilfer Gürtel",
    "Municipality": "Wien",
    "MunicipalityID": 90001,
    "Longitude": 16.3389911,
    "Latitude": 48.1933894
  },
  {
    "StopID": 482,
    "DIVA": 60200833,
    "StopText": "Mariahilfer Gürtel",
    "Municipality": "Wien",
    "MunicipalityID": 90001,
    "Longitude": 16.3387775,
    "Latitude": 48.1930844
  },
  {
    "StopID": 483,
    "DIVA": 60201468,
    "StopText": "Westbahnhof S U",
    "Municipality": "Wien",
    "MunicipalityID": 90001,
    "Longitude": 16.3387869,
    "Latitude": 48.1971794
  },
  {
    "StopID": 484,
    "DIVA": 60201468,
    "StopText": "Westbahnhof S U",
    "Municipality": "Wien",
    "MunicipalityID": 90001,
    "Longitude": 16.3390841,
    "Latitude": 48.1973775
  },
  {
    "StopID": 485,
    "DIVA": 60201413,
    "StopText": "Urban-Loritz-Platz",
    "Municipality": "Wien",
    "MunicipalityID": 90001,
    "Longitude": 16.3375508,
    "Latitude": 48.2013975
  },
  {
    "StopID": 493,
    "DIVA": 60201510,
    "StopText": "Währinger Straße, Volksoper U",
    "Municipality": "Wien",
    "MunicipalityID": 90001,
    "Longitude": 16.3490266,
    "Latitude": 48.2244094
  },
  {
    "StopID": 497,
    "DIVA": 60200950,
    "StopText": "Nußdorfer Straße U",
    "Municipality": "Wien",
    "MunicipalityID": 90001,
    "Longitude": 16.3537647,
    "Latitude": 48.2316358
  },
  {
    "StopID": 500,
    "DIVA": 60201015,
    "StopText": "Bhf. Meidling S U",
    "Municipality": "Wien",
    "MunicipalityID": 90001,
    "Longitude": 16.3308955,
    "Latitude": 48.1746055
  },
  {
    "StopID": 503,
    "DIVA": 60201139,
    "StopText": "Sagedergasse",
    "Municipality": "Wien",
    "MunicipalityID": 90001,
    "Longitude": 16.3193588,
    "Latitude": 48.1610747
  },
  {
    "StopID": 504,
    "DIVA": 60200048,
    "StopText": "Am Schöpfwerk",
    "Municipality": "Wien",
    "MunicipalityID": 90001,
    "Longitude": 16.3246047,
    "Latitude": 48.161475
  },
  {
    "StopID": 505,
    "DIVA": 60200782,
    "StopText": "Lichtensterngasse",
    "Municipality": "Wien",
    "MunicipalityID": 90001,
    "Longitude": 16.3299163,
    "Latitude": 48.1591408
  },
  {
    "StopID": 506,
    "DIVA": 60200913,
    "StopText": "Nauheimergasse",
    "Municipality": "Wien",
    "MunicipalityID": 90001,
    "Longitude": 16.331378,
    "Latitude": 48.1574488
  },
  {
    "StopID": 508,
    "DIVA": 60200188,
    "StopText": "Burggasse, Stadthalle U",
    "Municipality": "Wien",
    "MunicipalityID": 90001,
    "Longitude": 16.3371913,
    "Latitude": 48.2019586
  },
  {
    "StopID": 509,
    "DIVA": 60200465,
    "StopText": "Haidestraße S",
    "Municipality": "Wien",
    "MunicipalityID": 90001,
    "Longitude": 16.4276072,
    "Latitude": 48.1790836
  },
  {
    "StopID": 510,
    "DIVA": 60200131,
    "StopText": "Franz-Eder-Weg",
    "Municipality": "Wien",
    "MunicipalityID": 90001,
    "Longitude": 16.4343058,
    "Latitude": 48.1774044
  },
  {
    "StopID": 511,
    "DIVA": 60201514,
    "StopText": "Zanaschkagasse",
    "Municipality": "Wien",
    "MunicipalityID": 90001,
    "Longitude": 16.3290383,
    "Latitude": 48.157523
  },
  {
    "StopID": 512,
    "DIVA": 60200782,
    "StopText": "Lichtensterngasse",
    "Municipality": "Wien",
    "MunicipalityID": 90001,
    "Longitude": 16.3299391,
    "Latitude": 48.1589227
  },
  {
    "StopID": 513,
    "DIVA": 60200048,
    "StopText": "Am Schöpfwerk",
    "Municipality": "Wien",
    "MunicipalityID": 90001,
    "Longitude": 16.3250672,
    "Latitude": 48.1615341
  },
  {
    "StopID": 514,
    "DIVA": 60200674,
    "StopText": "Khleslplatz",
    "Municipality": "Wien",
    "MunicipalityID": 90001,
    "Longitude": 16.3221369,
    "Latitude": 48.1626002
  },
  {
    "StopID": 516,
    "DIVA": 60201446,
    "StopText": "Wallrißstraße",
    "Municipality": "Wien",
    "MunicipalityID": 90001,
    "Longitude": 16.3268652,
    "Latitude": 48.2320463
  },
  {
    "StopID": 517,
    "DIVA": 60201477,
    "StopText": "Wienerbergbrücke",
    "Municipality": "Wien",
    "MunicipalityID": 90001,
    "Longitude": 16.3286761,
    "Latitude": 48.1721241
  },
  {
    "StopID": 518,
    "DIVA": 60201015,
    "StopText": "Bhf. Meidling S U",
    "Municipality": "Wien",
    "MunicipalityID": 90001,
    "Longitude": 16.3313738,
    "Latitude": 48.1743658
  },
  {
    "StopID": 519,
    "DIVA": 60200986,
    "StopText": "Otto-Probst-Platz",
    "Municipality": "Wien",
    "MunicipalityID": 90001,
    "Longitude": 16.3489025,
    "Latitude": 48.1539072
  },
  {
    "StopID": 520,
    "DIVA": 60200444,
    "StopText": "Gutheil-Schoder-Gasse",
    "Municipality": "Wien",
    "MunicipalityID": 90001,
    "Longitude": 16.3357116,
    "Latitude": 48.1595058
  },
  {
    "StopID": 521,
    "DIVA": 60200393,
    "StopText": "Gersthof S",
    "Municipality": "Wien",
    "MunicipalityID": 90001,
    "Longitude": 16.3288105,
    "Latitude": 48.231683
  },
  {
    "StopID": 522,
    "DIVA": 60201526,
    "StopText": "Simonygasse",
    "Municipality": "Wien",
    "MunicipalityID": 90001,
    "Longitude": 16.328305,
    "Latitude": 48.227588
  },
  {
    "StopID": 523,
    "DIVA": 60201272,
    "StopText": "Sommarugagasse",
    "Municipality": "Wien",
    "MunicipalityID": 90001,
    "Longitude": 16.3315336,
    "Latitude": 48.2261791
  },
  {
    "StopID": 524,
    "DIVA": 60201426,
    "StopText": "Vinzenzgasse",
    "Municipality": "Wien",
    "MunicipalityID": 90001,
    "Longitude": 16.3341844,
    "Latitude": 48.2251105
  },
  {
    "StopID": 525,
    "DIVA": 60200149,
    "StopText": "Blumengasse",
    "Municipality": "Wien",
    "MunicipalityID": 90001,
    "Longitude": 16.3318175,
    "Latitude": 48.2215569
  },
  {
    "StopID": 526,
    "DIVA": 60200276,
    "StopText": "Elterleinplatz",
    "Municipality": "Wien",
    "MunicipalityID": 90001,
    "Longitude": 16.3309772,
    "Latitude": 48.2183652
  },
  {
    "StopID": 527,
    "DIVA": 60201560,
    "StopText": "Inzersdorf,  Kirchenplatz",
    "Municipality": "Wien",
    "MunicipalityID": 90001,
    "Longitude": 16.3473938,
    "Latitude": 48.1502302
  },
  {
    "StopID": 528,
    "DIVA": 60200861,
    "StopText": "Mayssengasse",
    "Municipality": "Wien",
    "MunicipalityID": 90001,
    "Longitude": 16.3255005,
    "Latitude": 48.2160761
  },
  {
    "StopID": 529,
    "DIVA": 60200930,
    "StopText": "Neusteinhof",
    "Municipality": "Wien",
    "MunicipalityID": 90001,
    "Longitude": 16.3332566,
    "Latitude": 48.1572238
  },
  {
    "StopID": 530,
    "DIVA": 60201374,
    "StopText": "Feßtgasse",
    "Municipality": "Wien",
    "MunicipalityID": 90001,
    "Longitude": 16.3252266,
    "Latitude": 48.2107363
  },
  {
    "StopID": 531,
    "DIVA": 60200704,
    "StopText": "Panikengasse",
    "Municipality": "Wien",
    "MunicipalityID": 90001,
    "Longitude": 16.3243452,
    "Latitude": 48.2081541
  },
  {
    "StopID": 532,
    "DIVA": 60200197,
    "StopText": "Camillo-Sitte-Gasse",
    "Municipality": "Wien",
    "MunicipalityID": 90001,
    "Longitude": 16.327348,
    "Latitude": 48.205113
  },
  {
    "StopID": 533,
    "DIVA": 60200440,
    "StopText": "Guntherstraße",
    "Municipality": "Wien",
    "MunicipalityID": 90001,
    "Longitude": 16.3269497,
    "Latitude": 48.2026475
  },
  {
    "StopID": 534,
    "DIVA": null,
    "StopText": "Schweglerstraße",
    "Municipality": "Wien",
    "MunicipalityID": 90001,
    "Longitude": null,
    "Latitude": null
  },
  {
    "StopID": 535,
    "DIVA": 60201413,
    "StopText": "Urban-Loritz-Platz",
    "Municipality": "Wien",
    "MunicipalityID": 90001,
    "Longitude": 16.3371713,
    "Latitude": 48.200723
  },
  {
    "StopID": 538,
    "DIVA": 60200212,
    "StopText": "Computerstraße",
    "Municipality": "Wien",
    "MunicipalityID": 90001,
    "Longitude": 16.34238,
    "Latitude": 48.1574272
  },
  {
    "StopID": 539,
    "DIVA": 60200444,
    "StopText": "Gutheil-Schoder-Gasse",
    "Municipality": "Wien",
    "MunicipalityID": 90001,
    "Longitude": 16.3358727,
    "Latitude": 48.1592569
  },
  {
    "StopID": 540,
    "DIVA": 60201514,
    "StopText": "Zanaschkagasse",
    "Municipality": "Wien",
    "MunicipalityID": 90001,
    "Longitude": 16.328575,
    "Latitude": 48.1571188
  },
  {
    "StopID": 541,
    "DIVA": 60201413,
    "StopText": "Urban-Loritz-Platz",
    "Municipality": "Wien",
    "MunicipalityID": 90001,
    "Longitude": 16.3377019,
    "Latitude": 48.2005277
  },
  {
    "StopID": 542,
    "DIVA": 60201560,
    "StopText": "Inzersdorf, Kirchenplatz",
    "Municipality": "Wien",
    "MunicipalityID": 90001,
    "Longitude": 16.3472297,
    "Latitude": 48.1501919
  },
  {
    "StopID": 543,
    "DIVA": 60200440,
    "StopText": "Guntherstraße",
    "Municipality": "Wien",
    "MunicipalityID": 90001,
    "Longitude": 16.3266066,
    "Latitude": 48.20216
  },
  {
    "StopID": 544,
    "DIVA": 60200197,
    "StopText": "Camillo-Sitte-Gasse",
    "Municipality": "Wien",
    "MunicipalityID": 90001,
    "Longitude": 16.3273155,
    "Latitude": 48.2048875
  },
  {
    "StopID": 545,
    "DIVA": 60200704,
    "StopText": "Panikengasse",
    "Municipality": "Wien",
    "MunicipalityID": 90001,
    "Longitude": 16.3243175,
    "Latitude": 48.2079477
  },
  {
    "StopID": 546,
    "DIVA": 60201374,
    "StopText": "Feßtgasse",
    "Municipality": "Wien",
    "MunicipalityID": 90001,
    "Longitude": 16.3251855,
    "Latitude": 48.2104961
  },
  {
    "StopID": 547,
    "DIVA": 60200602,
    "StopText": "Johann-Nepomuk-Berger-Platz",
    "Municipality": "Wien",
    "MunicipalityID": 90001,
    "Longitude": 16.3253738,
    "Latitude": 48.2129925
  },
  {
    "StopID": 548,
    "DIVA": 60200602,
    "StopText": "Johann-Nepomuk-Berger-Platz",
    "Municipality": "Wien",
    "MunicipalityID": 90001,
    "Longitude": 16.3265361,
    "Latitude": 48.2142141
  },
  {
    "StopID": 549,
    "DIVA": 60201115,
    "StopText": "Rosensteingasse",
    "Municipality": "Wien",
    "MunicipalityID": 90001,
    "Longitude": 16.3274902,
    "Latitude": 48.2186511
  },
  {
    "StopID": 550,
    "DIVA": 60200276,
    "StopText": "Elterleinplatz",
    "Municipality": "Wien",
    "MunicipalityID": 90001,
    "Longitude": 16.3308916,
    "Latitude": 48.2188524
  },
  {
    "StopID": 551,
    "DIVA": 60200149,
    "StopText": "Blumengasse",
    "Municipality": "Wien",
    "MunicipalityID": 90001,
    "Longitude": 16.3317786,
    "Latitude": 48.2213961
  },
  {
    "StopID": 552,
    "DIVA": 60201426,
    "StopText": "Vinzenzgasse",
    "Municipality": "Wien",
    "MunicipalityID": 90001,
    "Longitude": 16.3342966,
    "Latitude": 48.2247677
  },
  {
    "StopID": 553,
    "DIVA": 60201272,
    "StopText": "Sommarugagasse",
    "Municipality": "Wien",
    "MunicipalityID": 90001,
    "Longitude": 16.3319033,
    "Latitude": 48.2261058
  },
  {
    "StopID": 554,
    "DIVA": 60201526,
    "StopText": "Simonygasse",
    "Municipality": "Wien",
    "MunicipalityID": 90001,
    "Longitude": 16.3286602,
    "Latitude": 48.2277919
  },
  {
    "StopID": 555,
    "DIVA": 60200977,
    "StopText": "Frauengasse",
    "Municipality": "Wien",
    "MunicipalityID": 90001,
    "Longitude": 16.3291836,
    "Latitude": 48.213808
  },
  {
    "StopID": 556,
    "DIVA": 60200602,
    "StopText": "Johann-Nepomuk-Berger-Platz",
    "Municipality": "Wien",
    "MunicipalityID": 90001,
    "Longitude": 16.3256344,
    "Latitude": 48.2134116
  },
  {
    "StopID": 557,
    "DIVA": 60200913,
    "StopText": "Nauheimergasse",
    "Municipality": "Wien",
    "MunicipalityID": 90001,
    "Longitude": 16.3314802,
    "Latitude": 48.1572975
  },
  {
    "StopID": 558,
    "DIVA": 60200681,
    "StopText": "Jungbauerweg",
    "Municipality": "Wien",
    "MunicipalityID": 90001,
    "Longitude": 16.3454761,
    "Latitude": 48.1551497
  },
  {
    "StopID": 559,
    "DIVA": 60201317,
    "StopText": "Kendlerstraße U",
    "Municipality": "Wien",
    "MunicipalityID": 90001,
    "Longitude": 16.3080497,
    "Latitude": 48.2038605
  },
  {
    "StopID": 560,
    "DIVA": 60200450,
    "StopText": "Dornbach",
    "Municipality": "Wien",
    "MunicipalityID": 90001,
    "Longitude": 16.3077527,
    "Latitude": 48.2261972
  },
  {
    "StopID": 561,
    "DIVA": 60200784,
    "StopText": "Liebknechtgasse",
    "Municipality": "Wien",
    "MunicipalityID": 90001,
    "Longitude": 16.3067347,
    "Latitude": 48.2227352
  },
  {
    "StopID": 562,
    "DIVA": 60201121,
    "StopText": "Sandleitengasse",
    "Municipality": "Wien",
    "MunicipalityID": 90001,
    "Longitude": 16.3075827,
    "Latitude": 48.2179808
  },
  {
    "StopID": 563,
    "DIVA": 60200840,
    "StopText": "Maroltingergasse",
    "Municipality": "Wien",
    "MunicipalityID": 90001,
    "Longitude": 16.3066005,
    "Latitude": 48.2136433
  },
  {
    "StopID": 564,
    "DIVA": 60201489,
    "StopText": "Rankgasse",
    "Municipality": "Wien",
    "MunicipalityID": 90001,
    "Longitude": 16.3057047,
    "Latitude": 48.2110272
  },
  {
    "StopID": 565,
    "DIVA": 60200597,
    "StopText": "Joachimsthalerplatz",
    "Municipality": "Wien",
    "MunicipalityID": 90001,
    "Longitude": 16.3050861,
    "Latitude": 48.2091236
  },
  {
    "StopID": 566,
    "DIVA": 60200445,
    "StopText": "Gutraterplatz",
    "Municipality": "Wien",
    "MunicipalityID": 90001,
    "Longitude": 16.309003,
    "Latitude": 48.2077786
  },
  {
    "StopID": 567,
    "DIVA": 60200754,
    "StopText": "Laurentiusplatz",
    "Municipality": "Wien",
    "MunicipalityID": 90001,
    "Longitude": 16.3081,
    "Latitude": 48.2019683
  },
  {
    "StopID": 568,
    "DIVA": 60201035,
    "StopText": "Hütteldorfer Straße U",
    "Municipality": "Wien",
    "MunicipalityID": 90001,
    "Longitude": 16.3122552,
    "Latitude": 48.1995408
  },
  {
    "StopID": 569,
    "DIVA": 60200909,
    "StopText": "Märzstraße",
    "Municipality": "Wien",
    "MunicipalityID": 90001,
    "Longitude": 16.312013,
    "Latitude": 48.1967516
  },
  {
    "StopID": 570,
    "DIVA": 60201084,
    "StopText": "Linzer Straße, Reinlgasse",
    "Municipality": "Wien",
    "MunicipalityID": 90001,
    "Longitude": 16.31145,
    "Latitude": 48.1935836
  },
  {
    "StopID": 571,
    "DIVA": 60201158,
    "StopText": "Johnstraße, Linzer Straße",
    "Municipality": "Wien",
    "MunicipalityID": 90001,
    "Longitude": 16.3150288,
    "Latitude": 48.1927075
  },
  {
    "StopID": 572,
    "DIVA": 60201176,
    "StopText": "Schloss Schönbrunn",
    "Municipality": "Wien",
    "MunicipalityID": 90001,
    "Longitude": 16.3133899,
    "Latitude": 48.1882027
  },
  {
    "StopID": 573,
    "DIVA": 60200520,
    "StopText": "Hietzing U",
    "Municipality": "Wien",
    "MunicipalityID": 90001,
    "Longitude": 16.3041733,
    "Latitude": 48.18755
  },
  {
    "StopID": 574,
    "DIVA": 60200520,
    "StopText": "Hietzing U",
    "Municipality": "Wien",
    "MunicipalityID": 90001,
    "Longitude": 16.3039591,
    "Latitude": 48.1881047
  },
  {
    "StopID": 575,
    "DIVA": 60201317,
    "StopText": "Kendlerstraße U",
    "Municipality": "Wien",
    "MunicipalityID": 90001,
    "Longitude": 16.3080794,
    "Latitude": 48.2040683
  },
  {
    "StopID": 576,
    "DIVA": 60201176,
    "StopText": "Schloss Schönbrunn",
    "Municipality": "Wien",
    "MunicipalityID": 90001,
    "Longitude": 16.3129375,
    "Latitude": 48.1880713
  },